id,start_id,end_id,direction,start_name,start_coordinate,end_name,end_coordinate,bus_lines,start_lon,start_lat,end_lon,end_lat
1,1780,6433,1,TRONE,"4.364798, 50.841846",TRONE,"4.367127, 50.840315",12,4.364798,50.841846000000004,4.367127,50.840315000000004
2,6433,1131,1,TRONE,"4.367127, 50.840315",LUXEMBOURG,"4.373679, 50.839745",12,4.367127,50.840315000000004,4.373679,50.839745
3,1131,6464,1,LUXEMBOURG,"4.373679, 50.839745",MAELBEEK,"4.378319, 50.843725",12,4.373679,50.839745,4.378319,50.843725
4,6464,1318,1,MAELBEEK,"4.378319, 50.843725",SCHUMAN,"4.383817, 50.844356",12,4.378319,50.843725,4.383817,50.844356
5,1318,2247,1,SCHUMAN,"4.383817, 50.844356",MEISER,"4.397888, 50.853976",12,4.383817,50.844356,4.397888,50.853976
6,2247,4556,1,MEISER,"4.397888, 50.853976",GENEVE,"4.403284, 50.864192",12,4.397888,50.853976,4.403283999999999,50.864191999999996
7,4556,5044,1,GENEVE,"4.403284, 50.864192",DA VINCI,"4.414716, 50.876795",12,4.403283999999999,50.864191999999996,4.414716,50.876795
8,5044,3018,1,DA VINCI,"4.414716, 50.876795",BOURGET,"4.431073, 50.8785",12,4.414716,50.876795,4.4310730000000005,50.8785
9,3018,9600,1,BOURGET,"4.431073, 50.8785",BRUSSELS AIRPORT,"4.481761, 50.898149",12,4.4310730000000005,50.8785,4.481761,50.898149
10,9600,3017,2,BRUSSELS AIRPORT,"4.481761, 50.898149",BOURGET,"4.430334, 50.87815",12,4.481761,50.898149,4.430333999999999,50.87815
11,3017,5048,2,BOURGET,"4.430334, 50.87815",DA VINCI,"4.41044, 50.876145",12,4.430333999999999,50.87815,4.41044,50.876145
12,5048,2695,2,DA VINCI,"4.41044, 50.876145",GENEVE,"4.403241, 50.863832",12,4.41044,50.876145,4.403241,50.863832
13,2695,2250,2,GENEVE,"4.403241, 50.863832",MEISER,"4.397794, 50.853963",12,4.403241,50.863832,4.397794,50.853963
14,2250,1317,2,MEISER,"4.397794, 50.853963",SCHUMAN,"4.384186, 50.844329",12,4.397794,50.853963,4.384186,50.844328999999995
15,1317,6465,2,SCHUMAN,"4.384186, 50.844329",MAELBEEK,"4.378072, 50.843551",12,4.384186,50.844328999999995,4.378072,50.843551
16,6465,1162,2,MAELBEEK,"4.378072, 50.843551",LUXEMBOURG,"4.373376, 50.839401",12,4.378072,50.843551,4.373376,50.839401
17,1162,6432,2,LUXEMBOURG,"4.373376, 50.839401",TRONE,"4.366324, 50.840537",12,4.373376,50.839401,4.366324,50.840537
18,6432,1780,2,TRONE,"4.366324, 50.840537",TRONE,"4.364798, 50.841846",12,4.366324,50.840537,4.364798,50.841846000000004
19,1732,1743,1,UZ-VUB,"4.308952, 50.885712",UZ BRUSSEL,"4.311452, 50.886729","13, 88",4.308952,50.885712,4.311452,50.886728999999995
20,1743,1744,1,UZ BRUSSEL,"4.311452, 50.886729",UZ-PEDIATRIE,"4.309404, 50.889696","13, 88",4.311452,50.886728999999995,4.309404,50.889696
21,1744,1334,1,UZ-PEDIATRIE,"4.309404, 50.889696",ARBRE BALLON,"4.314011, 50.892622","13, 88",4.309404,50.889696,4.314011,50.892621999999996
22,1334,2849,1,ARBRE BALLON,"4.314011, 50.892622",AUDREY HEPBURN,"4.316768, 50.889678","13, 88",4.314011,50.892621999999996,4.316768,50.889678
23,2849,1606,1,AUDREY HEPBURN,"4.316768, 50.889678",DIELEGHEM,"4.319041, 50.888147",13,4.316768,50.889678,4.319041,50.888147
24,1606,1746,1,DIELEGHEM,"4.319041, 50.888147",BONAVENTURE,"4.322212, 50.884648",13,4.319041,50.888147,4.322212,50.884648
25,1746,3606,1,BONAVENTURE,"4.322212, 50.884648",FERNANDE VOLRAL,"4.321959, 50.882663","13, 83",4.322212,50.884648,4.321959,50.882663
26,3606,3229,1,FERNANDE VOLRAL,"4.321959, 50.882663",EUGENE TOUSSAINT,"4.321762, 50.880576","13, 83",4.321959,50.882663,4.3217620000000005,50.880576
27,3229,1010,1,EUGENE TOUSSAINT,"4.321762, 50.880576",LE ROUX,"4.321409, 50.878265","13, 83",4.3217620000000005,50.880576,4.321409,50.878265
28,1010,1747,1,LE ROUX,"4.321409, 50.878265",SQ. DU CENTENAIRE,"4.318538, 50.875668","13, 83",4.321409,50.878265,4.318537999999999,50.875668
29,1747,3601,1,SQ. DU CENTENAIRE,"4.318538, 50.875668",HOME HEYDEKEN,"4.313015, 50.875097",13,4.318537999999999,50.875668,4.313015,50.875097
30,3601,4112,1,HOME HEYDEKEN,"4.313015, 50.875097",LOWET,"4.310287, 50.874039",13,4.313015,50.875097,4.310287000000001,50.874039
31,4112,4105,1,LOWET,"4.310287, 50.874039",NEREUS,"4.313118, 50.872429","13, 87",4.310287000000001,50.874039,4.313118,50.872429
32,4105,2423,1,NEREUS,"4.313118, 50.872429",DELHOVE,"4.315725, 50.869063",13,4.313118,50.872429,4.315725,50.869063
33,2423,2519,1,DELHOVE,"4.315725, 50.869063",RIETHUISEN,"4.32007, 50.867271",13,4.315725,50.869063,4.320069999999999,50.867271
34,2519,4116,1,RIETHUISEN,"4.32007, 50.867271",PARC ELISABETH,"4.32834, 50.865071","13, 87",4.320069999999999,50.867271,4.32834,50.865071
35,4116,1112,1,PARC ELISABETH,"4.32834, 50.865071",SIMONIS,"4.330756, 50.86296","13, 87",4.32834,50.865071,4.330756,50.86296
36,1112,1114,1,SIMONIS,"4.330756, 50.86296",VANHUFFEL,"4.331643, 50.860432",13,4.330756,50.86296,4.331643,50.860432
37,1114,1115,1,VANHUFFEL,"4.331643, 50.860432",AUTRIQUE,"4.330078, 50.85877",13,4.331643,50.860432,4.330078,50.85877
38,1115,4111,1,AUTRIQUE,"4.330078, 50.85877",ETANGS NOIRS,"4.332197, 50.857069",13,4.330078,50.85877,4.332197,50.857069
39,4111,1179,2,ETANGS NOIRS,"4.332197, 50.857069",AUTRIQUE,"4.330205, 50.85886",13,4.332197,50.857069,4.330205,50.85886
40,1179,1180,2,AUTRIQUE,"4.330205, 50.85886",VANHUFFEL,"4.331816, 50.860483",13,4.330205,50.85886,4.331816000000001,50.860483
41,1180,1183,2,VANHUFFEL,"4.331816, 50.860483",SIMONIS,"4.330671, 50.863355",13,4.331816000000001,50.860483,4.330671,50.863355
42,1183,4152,2,SIMONIS,"4.330671, 50.863355",PARC ELISABETH,"4.327476, 50.865502","13, 87",4.330671,50.863355,4.327476,50.865502
43,4152,1303,2,PARC ELISABETH,"4.327476, 50.865502",RIETHUISEN,"4.321136, 50.867019","13, 87",4.327476,50.865502,4.321136,50.867019
44,1303,2422,2,RIETHUISEN,"4.321136, 50.867019",DELHOVE,"4.316014, 50.86909",13,4.321136,50.867019,4.316014,50.86909
45,2422,4158,2,DELHOVE,"4.316014, 50.86909",NEREUS,"4.31309, 50.872601",13,4.316014,50.86909,4.31309,50.872601
46,4158,4163,2,NEREUS,"4.31309, 50.872601",LOWET,"4.310166, 50.874249","13, 87",4.31309,50.872601,4.310166000000001,50.874249
47,4163,3600,2,LOWET,"4.310166, 50.874249",HOME HEYDEKEN,"4.313561, 50.875035",13,4.310166000000001,50.874249,4.313561,50.875035
48,3600,9103,2,HOME HEYDEKEN,"4.313561, 50.875035",SQ. DU CENTENAIRE,"4.317873, 50.876241",13,4.313561,50.875035,4.3178730000000005,50.876241
49,9103,1065,2,SQ. DU CENTENAIRE,"4.317873, 50.876241",LE ROUX,"4.321791, 50.879155","13, 83",4.3178730000000005,50.876241,4.321791,50.879155
50,1065,1066,2,LE ROUX,"4.321791, 50.879155",EUGENE TOUSSAINT,"4.321846, 50.881187","13, 83",4.321791,50.879155,4.321846,50.881187
51,1066,3607,2,EUGENE TOUSSAINT,"4.321846, 50.881187",FERNANDE VOLRAL,"4.322101, 50.882814","13, 83",4.321846,50.881187,4.322101,50.882814
52,3607,1711,2,FERNANDE VOLRAL,"4.322101, 50.882814",BONAVENTURE,"4.322378, 50.885563",13,4.322101,50.882814,4.322378,50.885563
53,1711,1599,2,BONAVENTURE,"4.322378, 50.885563",DIELEGHEM,"4.319338, 50.888054",13,4.322378,50.885563,4.319338,50.888054
54,1599,2850,2,DIELEGHEM,"4.319338, 50.888054",AUDREY HEPBURN,"4.315769, 50.889877",13,4.319338,50.888054,4.315769,50.889877
55,2850,1328,2,AUDREY HEPBURN,"4.315769, 50.889877",ARBRE BALLON,"4.312731, 50.892851","13, 88",4.315769,50.889877,4.312730999999999,50.892851
56,1328,1721,2,ARBRE BALLON,"4.312731, 50.892851",UZ-PEDIATRIE,"4.309199, 50.88989","13, 88",4.312730999999999,50.892851,4.309199,50.88989
57,1721,1722,2,UZ-PEDIATRIE,"4.309199, 50.88989",UZ BRUSSEL,"4.311083, 50.886396","13, 88",4.309199,50.88989,4.311083,50.886396000000005
58,1722,1727,2,UZ BRUSSEL,"4.311083, 50.886396",UZ-VUB,"4.308504, 50.886007","13, 88",4.311083,50.886396000000005,4.308504,50.886007
59,1900,3245,1,GARE DU NORD,"4.360273, 50.86008",WTC,"4.356188, 50.861313","14, 20",4.360273,50.860079999999996,4.3561879999999995,50.861313
60,3245,1671,1,WTC,"4.356188, 50.861313",SUZAN DANIEL,"4.347661, 50.86303","14, 20",4.3561879999999995,50.861313,4.347661,50.86303
61,1671,1056,1,SUZAN DANIEL,"4.347661, 50.86303",PICARD,"4.343166, 50.864456",14,4.347661,50.86303,4.343166,50.864456
62,1056,5074,1,PICARD,"4.343166, 50.864456",VANDERSTICHELEN,"4.338437, 50.866217",14,4.343166,50.864456,4.338437,50.866217
63,5074,5076,1,VANDERSTICHELEN,"4.338437, 50.866217",BELGICA,"4.335611, 50.867752",14,4.338437,50.866217,4.335611,50.867752
64,5076,1766,1,BELGICA,"4.335611, 50.867752",FIRMIN LECHARLIER,"4.330171, 50.871086",14,4.335611,50.867752,4.330171,50.871086
65,1766,1767,1,FIRMIN LECHARLIER,"4.330171, 50.871086",LEOPOLD I,"4.328702, 50.872802",14,4.330171,50.871086,4.328702,50.872802
66,1767,2515,1,LEOPOLD I,"4.328702, 50.872802",VERBEYST,"4.331647, 50.877071",14,4.328702,50.872802,4.331647,50.877071
67,2515,2498,1,VERBEYST,"4.331647, 50.877071",DEMINEURS,"4.332661, 50.879164",14,4.331647,50.877071,4.332661,50.879164
68,2498,1036,1,DEMINEURS,"4.332661, 50.879164",GARE DE JETTE,"4.330173, 50.880162","14, 88",4.332661,50.879164,4.330173,50.880162
69,1036,2871,1,GARE DE JETTE,"4.330173, 50.880162",LORGE,"4.331153, 50.882386","14, 88",4.330173,50.880162,4.331153,50.882386
70,2871,2873,1,LORGE,"4.331153, 50.882386",CROCQ,"4.330214, 50.884726","14, 88",4.331153,50.882386,4.330214,50.884726
71,2873,1755,1,CROCQ,"4.330214, 50.884726",BONAVENTURE,"4.321743, 50.885043",14,4.330214,50.884726,4.321743,50.885042999999996
72,1755,1103,1,BONAVENTURE,"4.321743, 50.885043",ANCIENNE BARRIERE,"4.316271, 50.885545",14,4.321743,50.885042999999996,4.3162709999999995,50.885545
73,1103,1743,1,ANCIENNE BARRIERE,"4.316271, 50.885545",UZ BRUSSEL,"4.311452, 50.886729",14,4.3162709999999995,50.885545,4.311452,50.886728999999995
74,1743,1727,1,UZ BRUSSEL,"4.311452, 50.886729",UZ-VUB,"4.308504, 50.886007",14,4.311452,50.886728999999995,4.308504,50.886007
75,1732,1368,2,UZ-VUB,"4.308952, 50.885712",ANCIENNE BARRIERE,"4.318659, 50.885087",14,4.308952,50.885712,4.318658999999999,50.885087
76,1368,1768,2,ANCIENNE BARRIERE,"4.318659, 50.885087",BONAVENTURE,"4.322729, 50.884961",14,4.318658999999999,50.885087,4.322729,50.884961
77,1768,2801,2,BONAVENTURE,"4.322729, 50.884961",CROCQ,"4.329588, 50.884911","14, 83",4.322729,50.884961,4.329587999999999,50.884910999999995
78,2801,2803,2,CROCQ,"4.329588, 50.884911",LORGE,"4.33087, 50.882851",14,4.329587999999999,50.884910999999995,4.33087,50.882851
79,2803,1035,2,LORGE,"4.33087, 50.882851",GARE DE JETTE,"4.330411, 50.880181","14, 88",4.33087,50.882851,4.330411,50.880181
80,1035,2584,2,GARE DE JETTE,"4.330411, 50.880181",DEMINEURS,"4.332441, 50.879024","14, 88",4.330411,50.880181,4.332441,50.879024
81,2584,2586,2,DEMINEURS,"4.332441, 50.879024",VERBEYST,"4.330532, 50.876435",14,4.332441,50.879024,4.330532,50.876435
82,2586,1775,2,VERBEYST,"4.330532, 50.876435",LEOPOLD I,"4.328503, 50.873069",14,4.330532,50.876435,4.3285029999999995,50.873069
83,1775,1782,2,LEOPOLD I,"4.328503, 50.873069",FIRMIN LECHARLIER,"4.330174, 50.870978",14,4.3285029999999995,50.873069,4.3301739999999995,50.870978
84,1782,5009,2,FIRMIN LECHARLIER,"4.330174, 50.870978",BELGICA,"4.336065, 50.867474",14,4.3301739999999995,50.870978,4.3360650000000005,50.867474
85,5009,5011,2,BELGICA,"4.336065, 50.867474",VANDERSTICHELEN,"4.338815, 50.865942",14,4.3360650000000005,50.867474,4.338815,50.865942
86,5011,1019,2,VANDERSTICHELEN,"4.338815, 50.865942",PICARD,"4.344119, 50.864062",14,4.338815,50.865942,4.344119,50.864062
87,1019,1670,2,PICARD,"4.344119, 50.864062",SUZAN DANIEL,"4.347176, 50.863052",14,4.344119,50.864062,4.347176,50.863052
88,1670,1024,2,SUZAN DANIEL,"4.347176, 50.863052",WTC,"4.355358, 50.861176","14, 20",4.347176,50.863052,4.355358,50.861176
89,1024,1900,2,WTC,"4.355358, 50.861176",GARE DU NORD,"4.360273, 50.86008","14, 20",4.355358,50.861176,4.360273,50.860079999999996
90,9059,4287,1,HEILIGENBORRE,"4.420431, 50.789581",INTERNAT. SCHOOL,"4.419611, 50.792197",17,4.420431,50.789581,4.419611,50.792196999999994
91,4287,4292,1,INTERNAT. SCHOOL,"4.419611, 50.792197",ETANGS BOITSFORT,"4.41791, 50.793934",17,4.419611,50.792196999999994,4.41791,50.793934
92,4292,4341,1,ETANGS BOITSFORT,"4.41791, 50.793934",DIABOLO,"4.417673, 50.796612",17,4.41791,50.793934,4.417673000000001,50.796611999999996
93,4341,4351,1,DIABOLO,"4.417673, 50.796612",WIENER,"4.41915, 50.798677",17,4.417673000000001,50.796611999999996,4.41915,50.798677000000005
94,4351,4348,1,WIENER,"4.41915, 50.798677",MIRAVAL,"4.414017, 50.800227","17, 95",4.41915,50.798677000000005,4.414016999999999,50.800227
95,4348,4355,1,MIRAVAL,"4.414017, 50.800227",LES 3 TILLEULS,"4.41287, 50.802745","17, 95",4.414016999999999,50.800227,4.41287,50.802745
96,4355,1455,1,LES 3 TILLEULS,"4.41287, 50.802745",CALYPSO 2000,"4.408998, 50.803124","17, 95",4.41287,50.802745,4.408998,50.803124
97,1455,4357,1,CALYPSO 2000,"4.408998, 50.803124",VANDER ELST,"4.40675, 50.805415","17, 95",4.408998,50.803124,4.40675,50.805415
98,4357,4358,1,VANDER ELST,"4.40675, 50.805415",KEYM,"4.403172, 50.81003","17, 95",4.40675,50.805415,4.4031720000000005,50.81003
99,4358,4293,1,KEYM,"4.403172, 50.81003",BRILLANT,"4.401854, 50.811909",17,4.4031720000000005,50.81003,4.401854,50.811909
100,4293,4294,1,BRILLANT,"4.401854, 50.811909",TERCOIGNE,"4.404749, 50.812313",17,4.401854,50.811909,4.404749,50.812313
101,4294,4295,1,TERCOIGNE,"4.404749, 50.812313",GARDON,"4.410509, 50.812744",17,4.404749,50.812313,4.410508999999999,50.812744
102,4295,4296,1,GARDON,"4.410509, 50.812744",BERENSHEIDE,"4.414881, 50.813685",17,4.410508999999999,50.812744,4.414880999999999,50.813685
103,4296,4297,1,BERENSHEIDE,"4.414881, 50.813685",BEAULIEU,"4.408214, 50.815413",17,4.414880999999999,50.813685,4.408214,50.815413
104,4297,4298,2,BEAULIEU,"4.408214, 50.815413",MICHIELS,"4.403204, 50.814776",17,4.408214,50.815413,4.403204,50.814776
105,4298,4299,2,MICHIELS,"4.403204, 50.814776",BRILLANT,"4.401045, 50.811774",17,4.403204,50.814776,4.401045,50.811774
106,4299,4310,2,BRILLANT,"4.401045, 50.811774",KEYM,"4.403442, 50.809616",17,4.401045,50.811774,4.403442,50.809616
107,4310,4311,2,KEYM,"4.403442, 50.809616",VANDER ELST,"4.406721, 50.805205","17, 95",4.403442,50.809616,4.406721,50.805205
108,4311,1453,2,VANDER ELST,"4.406721, 50.805205",CALYPSO 2000,"4.409778, 50.803007","17, 95",4.406721,50.805205,4.409778,50.803007
109,1453,4313,2,CALYPSO 2000,"4.409778, 50.803007",LES 3 TILLEULS,"4.412501, 50.802583","17, 95",4.409778,50.803007,4.412501,50.802583
110,4313,4347,2,LES 3 TILLEULS,"4.412501, 50.802583",MIRAVAL,"4.414442, 50.799796",17,4.412501,50.802583,4.414442,50.799796
111,4347,4349,2,MIRAVAL,"4.414442, 50.799796",WIENER,"4.419065, 50.798535",17,4.414442,50.799796,4.419065,50.798535
112,4349,4342,2,WIENER,"4.419065, 50.798535",DIABOLO,"4.417673, 50.796333",17,4.419065,50.798535,4.417673000000001,50.796333000000004
113,4342,4289,2,DIABOLO,"4.417673, 50.796333",ETANGS BOITSFORT,"4.418493, 50.794104",17,4.417673000000001,50.796333000000004,4.418493,50.794104
114,4289,4288,2,ETANGS BOITSFORT,"4.418493, 50.794104",INTERNAT. SCHOOL,"4.41937, 50.792179",17,4.418493,50.794104,4.41937,50.792179
115,4288,4290,2,INTERNAT. SCHOOL,"4.41937, 50.792179",KATTENBERG,"4.420068, 50.790516",17,4.41937,50.792179,4.420068,50.790516
116,4290,1472,2,KATTENBERG,"4.420068, 50.790516",FORESTERIE,"4.42484, 50.786148",17,4.420068,50.790516,4.4248400000000006,50.786148
117,1472,4319,2,FORESTERIE,"4.42484, 50.786148",EQUIPAGES,"4.422597, 50.787402",17,4.4248400000000006,50.786148,4.4225970000000006,50.787402
118,4319,9059,2,EQUIPAGES,"4.422597, 50.787402",HEILIGENBORRE,"4.420431, 50.789581",17,4.4225970000000006,50.787402,4.420431,50.789581
119,1671,4213,1,SUZAN DANIEL,"4.347661, 50.86303",RIBAUCOURT,"4.341212, 50.859879","20, 86",4.347661,50.86303,4.3412120000000005,50.859879
120,4213,4214,1,RIBAUCOURT,"4.341212, 50.859879",MERCHTEM,"4.336782, 50.858413","20, 86",4.3412120000000005,50.859879,4.336782,50.858413
121,4214,1793,1,MERCHTEM,"4.336782, 50.858413",ETANGS NOIRS,"4.33165, 50.857124",20,4.336782,50.858413,4.33165,50.857124
122,1793,2082,1,ETANGS NOIRS,"4.33165, 50.857124",OSSEGHEM,"4.32534, 50.857009",20,4.33165,50.857124,4.32534,50.857009000000005
123,2082,2072,1,OSSEGHEM,"4.32534, 50.857009",KARREVELD,"4.318501, 50.858405",20,4.32534,50.857009000000005,4.318501,50.858405
124,2072,1197,1,KARREVELD,"4.318501, 50.858405",BASTOGNE,"4.316156, 50.861354",20,4.318501,50.858405,4.316155999999999,50.861354
125,1197,1198,1,BASTOGNE,"4.316156, 50.861354",BENES,"4.312234, 50.864311",20,4.316155999999999,50.861354,4.312233999999999,50.864311
126,1198,1120,1,BENES,"4.312234, 50.864311",WINTEROY,"4.306428, 50.8645",20,4.312233999999999,50.864311,4.3064279999999995,50.8645
127,1120,4066,1,WINTEROY,"4.306428, 50.8645",GENOT,"4.299667, 50.862808",20,4.3064279999999995,50.8645,4.2996669999999995,50.862808
128,4066,1307,1,GENOT,"4.299667, 50.862808",SCHWEITZER,"4.296735, 50.864373",20,4.2996669999999995,50.862808,4.296735,50.864373
129,1307,1190,1,SCHWEITZER,"4.296735, 50.864373",COMHAIRE,"4.296286, 50.860912",20,4.296735,50.864373,4.296286,50.860912
130,1190,1209,1,COMHAIRE,"4.296286, 50.860912",PLACE DE L'EGLISE,"4.291597, 50.861772",20,4.296286,50.860912,4.291597,50.861771999999995
131,1209,4661,1,PLACE DE L'EGLISE,"4.291597, 50.861772",BROEK,"4.286893, 50.863333",20,4.291597,50.861771999999995,4.286893,50.863333000000004
132,4661,1193,1,BROEK,"4.286893, 50.863333",SEPT ETOILES,"4.284473, 50.865548","20, 87",4.286893,50.863333000000004,4.284473,50.865548
133,1193,1194,1,SEPT ETOILES,"4.284473, 50.865548",HUNDERENVELD,"4.28129, 50.866952",20,4.284473,50.865548,4.28129,50.866952000000005
134,1142,1102,2,HUNDERENVELD,"4.281502, 50.86724",SEPT ETOILES,"4.285551, 50.864585",20,4.281502,50.86724,4.285551,50.864585
135,1102,4598,2,SEPT ETOILES,"4.285551, 50.864585",BROEK,"4.287581, 50.862838","20, 87",4.285551,50.864585,4.287580999999999,50.862838
136,4598,1095,2,BROEK,"4.287581, 50.862838",PLACE DE L'EGLISE,"4.292961, 50.861233",20,4.287580999999999,50.862838,4.292961,50.861233
137,1095,1105,2,PLACE DE L'EGLISE,"4.292961, 50.861233",COMHAIRE,"4.296378, 50.859962",20,4.292961,50.861233,4.296378,50.859962
138,1105,1306,2,COMHAIRE,"4.296378, 50.859962",SCHWEITZER,"4.29709, 50.864418",20,4.296378,50.859962,4.29709,50.864418
139,1306,1118,2,SCHWEITZER,"4.29709, 50.864418",GENOT,"4.301247, 50.862575",20,4.29709,50.864418,4.301247,50.862575
140,1118,1119,2,GENOT,"4.301247, 50.862575",WINTEROY,"4.30662, 50.864477",20,4.301247,50.862575,4.30662,50.864477
141,1119,1096,2,WINTEROY,"4.30662, 50.864477",BENES,"4.312275, 50.864112",20,4.30662,50.864477,4.312275,50.864112
142,1096,1097,2,BENES,"4.312275, 50.864112",BASTOGNE,"4.315886, 50.861273",20,4.312275,50.864112,4.315886,50.861273
143,1097,2073,2,BASTOGNE,"4.315886, 50.861273",KARREVELD,"4.31955, 50.857615",20,4.315886,50.861273,4.31955,50.857615
144,2073,2081,2,KARREVELD,"4.31955, 50.857615",OSSEGHEM,"4.325319, 50.856927",20,4.31955,50.857615,4.325319,50.856927
145,2081,4111,2,OSSEGHEM,"4.325319, 50.856927",ETANGS NOIRS,"4.332197, 50.857069",20,4.325319,50.856927,4.332197,50.857069
146,4111,1792,2,ETANGS NOIRS,"4.332197, 50.857069",MERCHTEM,"4.336469, 50.858268",20,4.332197,50.857069,4.336469,50.858268
147,1792,5013,2,MERCHTEM,"4.336469, 50.858268",RIBAUCOURT,"4.340888, 50.86023",20,4.336469,50.858268,4.340888,50.86023
148,5013,1670,2,RIBAUCOURT,"4.340888, 50.86023",SUZAN DANIEL,"4.347176, 50.863052",20,4.340888,50.86023,4.347176,50.863052
149,1262,1132,1,LUXEMBOURG,"4.373914, 50.840268",TREVES,"4.374318, 50.841004","21, 27",4.373914,50.840268,4.374318,50.841004
150,1132,2927,1,TREVES,"4.374318, 50.841004",PARC LEOPOLD,"4.378272, 50.841059","21, 64",4.374318,50.841004,4.378272,50.841059
151,3081,1273,1,MARIE-LOUISE,"4.378078, 50.845721",AMBIORIX,"4.38347, 50.846234","21, 64, 79",4.3780779999999995,50.845721000000005,4.38347,50.846234
152,1318,1402,1,SCHUMAN,"4.383817, 50.844356",MICHEL-ANGE,"4.386602, 50.845205","21, 79",4.383817,50.844356,4.386602,50.845205
153,1402,1419,1,MICHEL-ANGE,"4.386602, 50.845205",GUEUX,"4.391358, 50.847115","21, 63, 79",4.386602,50.845205,4.391358,50.847115
154,1419,1403,1,GUEUX,"4.391358, 50.847115",JAMBLINNE DE MEUX,"4.393729, 50.847236","21, 63, 79",4.391358,50.847115,4.393729,50.847235999999995
155,1403,3366,1,JAMBLINNE DE MEUX,"4.393729, 50.847236",PLASKY,"4.397406, 50.850546",21,4.393729,50.847235999999995,4.397406,50.850546
156,3366,6451,1,PLASKY,"4.397406, 50.850546",DIAMANT,"4.401571, 50.849103","21, 29",4.397406,50.850546,4.401571,50.849103
157,6451,6448,1,DIAMANT,"4.401571, 50.849103",DIAMANT,"4.402304, 50.849465",21,4.401571,50.849103,4.402304,50.849465
158,6448,3956,1,DIAMANT,"4.402304, 50.849465",COLONEL BOURG,"4.409463, 50.85244","21, 79",4.402304,50.849465,4.409463,50.85244
159,3956,3957,1,COLONEL BOURG,"4.409463, 50.85244",CARENE,"4.415206, 50.854704","21, 79, 80",4.409463,50.85244,4.4152059999999995,50.854704
160,3957,3961,1,CARENE,"4.415206, 50.854704",MOMMAERTS,"4.412695, 50.85688",21,4.4152059999999995,50.854704,4.412694999999999,50.85688
161,3961,4558,1,MOMMAERTS,"4.412695, 50.85688",RTL HOUSE,"4.408122, 50.857268",21,4.412694999999999,50.85688,4.4081220000000005,50.857268
162,4558,4555,1,RTL HOUSE,"4.408122, 50.857268",PAUL LEDUC,"4.403898, 50.860735",21,4.4081220000000005,50.857268,4.403898000000001,50.860735
163,4555,4556,1,PAUL LEDUC,"4.403898, 50.860735",GENEVE,"4.403284, 50.864192",21,4.403898000000001,50.860735,4.403283999999999,50.864191999999996
164,4556,3450,1,GENEVE,"4.403284, 50.864192",EVERE SHOPPING,"4.404753, 50.86677",21,4.403283999999999,50.864191999999996,4.4047529999999995,50.86677
165,3450,3404,1,EVERE SHOPPING,"4.404753, 50.86677",LOISIRS,"4.406426, 50.86793",21,4.4047529999999995,50.86677,4.406426000000001,50.86793
166,3404,3424,1,LOISIRS,"4.406426, 50.86793",PERMEKE,"4.407182, 50.870897","21, 45",4.406426000000001,50.86793,4.407182,50.870897
167,3424,3306,1,PERMEKE,"4.407182, 50.870897",HOEDEMAEKERS,"4.40383, 50.871958","21, 45",4.407182,50.870897,4.40383,50.871958
168,3306,3420,1,HOEDEMAEKERS,"4.40383, 50.871958",OUD-KAPELLEKE,"4.403888, 50.874341","21, 45",4.40383,50.871958,4.403887999999999,50.874340999999994
169,3420,1893,1,OUD-KAPELLEKE,"4.403888, 50.874341",BORDET STATION,"4.409348, 50.877616",21,4.403887999999999,50.874340999999994,4.4093480000000005,50.877615999999996
170,1893,3279,1,BORDET STATION,"4.409348, 50.877616",SABCA,"4.416944, 50.881753",21,4.4093480000000005,50.877615999999996,4.416944,50.881753
171,3279,3280,1,SABCA,"4.416944, 50.881753",MIDDELWEG,"4.421197, 50.884148",21,4.416944,50.881753,4.421197,50.884147999999996
172,3280,3201,1,MIDDELWEG,"4.421197, 50.884148",MAES,"4.429606, 50.886466",21,4.421197,50.884147999999996,4.429606,50.886466
173,3201,3199,2,MAES,"4.429606, 50.886466",AERODROME,"4.42516, 50.888347",21,4.429606,50.886466,4.42516,50.888346999999996
174,3199,3203,2,AERODROME,"4.42516, 50.888347",MIDDELWEG,"4.419967, 50.883549",21,4.42516,50.888346999999996,4.419967,50.883549
175,3203,3204,2,MIDDELWEG,"4.419967, 50.883549",SABCA,"4.417138, 50.881959",21,4.419967,50.883549,4.417138,50.881959
176,3204,3214,2,SABCA,"4.417138, 50.881959",BORDET STATION,"4.410322, 50.878191",21,4.417138,50.881959,4.410322,50.878190999999994
177,3214,2924,2,BORDET STATION,"4.410322, 50.878191",OUD-KAPELLEKE,"4.403007, 50.874152",21,4.410322,50.878190999999994,4.403007,50.874152
178,2924,3361,2,OUD-KAPELLEKE,"4.403007, 50.874152",HOEDEMAEKERS,"4.403872, 50.87177","21, 45",4.403007,50.874152,4.403872,50.87177
179,3361,3425,2,HOEDEMAEKERS,"4.403872, 50.87177",PERMEKE,"4.406414, 50.8706","21, 45",4.403872,50.87177,4.406414,50.8706
180,3425,3458,2,PERMEKE,"4.406414, 50.8706",LOISIRS,"4.40627, 50.86793","21, 45",4.406414,50.8706,4.40627,50.86793
181,3458,3466,2,LOISIRS,"4.40627, 50.86793",EVERE SHOPPING,"4.403939, 50.866394",21,4.40627,50.86793,4.403939,50.866394
182,3466,2695,2,EVERE SHOPPING,"4.403939, 50.866394",GENEVE,"4.403241, 50.863832",21,4.403939,50.866394,4.403241,50.863832
183,2695,3468,2,GENEVE,"4.403241, 50.863832",PAUL LEDUC,"4.4037, 50.860652",21,4.403241,50.863832,4.4037,50.860652
184,3468,4500,2,PAUL LEDUC,"4.4037, 50.860652",RTL HOUSE,"4.408249, 50.856891",21,4.4037,50.860652,4.408249,50.856891
185,4500,4505,2,RTL HOUSE,"4.408249, 50.856891",MOMMAERTS,"4.413007, 50.856889",21,4.408249,50.856891,4.413007,50.856889
186,4505,3904,2,MOMMAERTS,"4.413007, 50.856889",CARENE,"4.414556, 50.854499",21,4.413007,50.856889,4.414556,50.854499
187,3904,3905,2,CARENE,"4.414556, 50.854499",COLONEL BOURG,"4.409583, 50.852523","21, 79, 80",4.414556,50.854499,4.4095830000000005,50.852523
188,3905,3911,2,COLONEL BOURG,"4.409583, 50.852523",DIVIN SAUVEUR,"4.408401, 50.850357","21, 79",4.4095830000000005,50.852523,4.4084010000000005,50.850357
189,3911,6454,2,DIVIN SAUVEUR,"4.408401, 50.850357",DIAMANT,"4.40154, 50.849234",21,4.4084010000000005,50.850357,4.40154,50.849234
190,6454,3367,2,DIAMANT,"4.40154, 50.849234",PLASKY,"4.397163, 50.850698","21, 29",4.40154,50.849234,4.397163,50.850698
191,3367,3707,2,PLASKY,"4.397163, 50.850698",JAMBLINNE DE MEUX,"4.395036, 50.848238",21,4.397163,50.850698,4.395036,50.848238
192,3707,1463,2,JAMBLINNE DE MEUX,"4.395036, 50.848238",GUEUX,"4.390915, 50.846985",21,4.395036,50.848238,4.390915000000001,50.846985
193,1463,1464,2,GUEUX,"4.390915, 50.846985",MICHEL-ANGE,"4.386558, 50.845282","21, 79",4.390915000000001,50.846985,4.386558,50.845282
194,1464,1317,2,MICHEL-ANGE,"4.386558, 50.845282",SCHUMAN,"4.384186, 50.844329","21, 79",4.386558,50.845282,4.384186,50.844328999999995
195,1317,3080,2,SCHUMAN,"4.384186, 50.844329",MARIE-LOUISE,"4.377555, 50.845024","21, 79",4.384186,50.844328999999995,4.377555,50.845024
196,6465,1497,2,MAELBEEK,"4.378072, 50.843551",TOULOUSE,"4.375982, 50.843138","21, 64",4.378072,50.843551,4.375982,50.843138
197,1497,1160,2,TOULOUSE,"4.375982, 50.843138",TREVES,"4.374715, 50.841975","21, 27, 64",4.375982,50.843138,4.374715,50.841975
198,1160,1162,2,TREVES,"4.374715, 50.841975",LUXEMBOURG,"4.373376, 50.839401","21, 27, 64",4.374715,50.841975,4.373376,50.839401
199,3958,3959,1,PLEIADES,"4.418145, 50.853929",CAPRICORNE,"4.421039, 50.85518","27, 79",4.418145,50.853929,4.421039,50.85518
200,3959,3962,1,CAPRICORNE,"4.421039, 50.85518",ANDROMEDE,"4.425251, 50.854456","27, 79",4.421039,50.85518,4.425251,50.854456
201,3962,2431,1,ANDROMEDE,"4.425251, 50.854456",ANDROMEDE,"4.424597, 50.853057",27,4.425251,50.854456,4.424597,50.853057
202,2431,3909,1,ANDROMEDE,"4.424597, 50.853057",SAINTE-FAMILLE,"4.427982, 50.850165",27,4.424597,50.853057,4.427982,50.850165000000004
203,3909,3910,1,SAINTE-FAMILLE,"4.427982, 50.850165",MOONENS,"4.428607, 50.848417",27,4.427982,50.850165000000004,4.428607,50.848417
204,3910,3919,1,MOONENS,"4.428607, 50.848417",VERHEYLEWEGHEN,"4.424722, 50.848114",27,4.428607,50.848417,4.424722,50.848114
205,3919,1150,1,VERHEYLEWEGHEN,"4.424722, 50.848114",ZEPHYR,"4.421532, 50.847132",27,4.424722,50.848114,4.421532,50.847132
206,1150,1152,1,ZEPHYR,"4.421532, 50.847132",MEUDON,"4.41677, 50.844896",27,4.421532,50.847132,4.41677,50.844896000000006
207,1152,1153,1,MEUDON,"4.41677, 50.844896",DEGROOFF,"4.411504, 50.843612","27, 28, 80",4.41677,50.844896000000006,4.411504,50.843612
208,1153,1154,1,DEGROOFF,"4.411504, 50.843612",GEORGES HENRI,"4.406374, 50.841746","27, 80",4.411504,50.843612,4.406374,50.841746
209,1154,2287,1,GEORGES HENRI,"4.406374, 50.841746",MONTGOMERY,"4.406021, 50.838007","27, 80",4.406374,50.841746,4.406021,50.838007
210,2287,1156,1,MONTGOMERY,"4.406021, 50.838007",MERODE,"4.398226, 50.839607","27, 61, 80",4.406021,50.838007,4.398226,50.839607
211,1156,1157,1,MERODE,"4.398226, 50.839607",GAULOIS,"4.39256, 50.838215",27,4.398226,50.839607,4.39256,50.838215000000005
212,1157,1158,1,GAULOIS,"4.39256, 50.838215",NERVIENS,"4.386044, 50.839573",27,4.39256,50.838215000000005,4.386044,50.839573
213,1158,1476,1,NERVIENS,"4.386044, 50.839573",FROISSART,"4.381885, 50.8405",27,4.386044,50.839573,4.381885,50.8405
214,1476,1497,1,FROISSART,"4.381885, 50.8405",TOULOUSE,"4.375982, 50.843138",27,4.381885,50.8405,4.375982,50.843138
215,1132,1133,2,TREVES,"4.374318, 50.841004",PARC LEOPOLD,"4.378663, 50.840341",27,4.374318,50.841004,4.3786629999999995,50.840340999999995
216,1133,1134,2,PARC LEOPOLD,"4.378663, 50.840341",NERVIENS,"4.386635, 50.839287",27,4.3786629999999995,50.840340999999995,4.386635,50.839287
217,1134,1135,2,NERVIENS,"4.386635, 50.839287",GAULOIS,"4.392801, 50.838062",27,4.386635,50.839287,4.392801,50.838062
218,1135,1136,2,GAULOIS,"4.392801, 50.838062",MERODE,"4.398528, 50.839216","27, 80",4.392801,50.838062,4.398528,50.839216
219,1136,2283,2,MERODE,"4.398528, 50.839216",MONTGOMERY,"4.408147, 50.837038","27, 61, 80",4.398528,50.839216,4.4081470000000005,50.837038
220,2283,1113,2,MONTGOMERY,"4.408147, 50.837038",ICHEC,"4.408276, 50.838804","27, 80",4.4081470000000005,50.837038,4.408276,50.838803999999996
221,1113,1139,2,ICHEC,"4.408276, 50.838804",GEORGES HENRI,"4.406718, 50.842148","27, 80",4.408276,50.838803999999996,4.406718,50.842148
222,1139,1140,2,GEORGES HENRI,"4.406718, 50.842148",DEGROOFF,"4.411958, 50.843639","27, 80",4.406718,50.842148,4.411958,50.843639
223,1140,1141,2,DEGROOFF,"4.411958, 50.843639",MEUDON,"4.417254, 50.84508","27, 28, 80",4.411958,50.843639,4.417254,50.845079999999996
224,1141,1138,2,MEUDON,"4.417254, 50.84508",ZEPHYR,"4.420899, 50.846783",27,4.417254,50.845079999999996,4.4208989999999995,50.846783
225,1138,1522,2,ZEPHYR,"4.420899, 50.846783",VERHEYLEWEGHEN,"4.425145, 50.848165",27,4.4208989999999995,50.846783,4.425145,50.848165
226,1522,3899,2,VERHEYLEWEGHEN,"4.425145, 50.848165",MOONENS,"4.42883, 50.848419","27, 29",4.425145,50.848165,4.4288300000000005,50.848419
227,3899,3900,2,MOONENS,"4.42883, 50.848419",SAINTE-FAMILLE,"4.427968, 50.850346",27,4.4288300000000005,50.848419,4.427968,50.850346
228,3900,2430,2,SAINTE-FAMILLE,"4.427968, 50.850346",ANDROMEDE,"4.424597, 50.853057",27,4.427968,50.850346,4.424597,50.853057
229,2430,3920,2,ANDROMEDE,"4.424597, 50.853057",ANDROMEDE,"4.425119, 50.854699",27,4.424597,50.853057,4.4251190000000005,50.854699
230,3920,3902,2,ANDROMEDE,"4.425119, 50.854699",CAPRICORNE,"4.420893, 50.855157","27, 79",4.4251190000000005,50.854699,4.420893,50.855157
231,3902,3903,2,CAPRICORNE,"4.420893, 50.855157",PLEIADES,"4.418262, 50.854016","27, 79",4.420893,50.855157,4.418262,50.854015999999994
232,1830,1832,1,KONKEL,"4.450887, 50.842081",DON BOSCO,"4.449168, 50.841533",28,4.450887000000001,50.842081,4.449168,50.841533
233,1832,1833,1,DON BOSCO,"4.449168, 50.841533",STADE FALLON,"4.443688, 50.841321",28,4.449168,50.841533,4.443688,50.841321
234,1833,1451,1,STADE FALLON,"4.443688, 50.841321",PARC MALOU,"4.439701, 50.840567",28,4.443688,50.841321,4.439701,50.840567
235,1451,1450,1,PARC MALOU,"4.439701, 50.840567",DEPORTES,"4.436724, 50.839816",28,4.439701,50.840567,4.436724,50.839816
236,1450,1454,1,DEPORTES,"4.436724, 50.839816",VOOT,"4.434287, 50.841361",28,4.436724,50.839816,4.434287,50.841361
237,1454,1449,1,VOOT,"4.434287, 50.841361",SLEGERS,"4.432127, 50.841452",28,4.434287,50.841361,4.4321269999999995,50.841452000000004
238,1449,1456,1,SLEGERS,"4.432127, 50.841452",MELARD,"4.427376, 50.842347",28,4.4321269999999995,50.841452000000004,4.427376000000001,50.842347
239,1456,6477,1,MELARD,"4.427376, 50.842347",TOMBERG,"4.425034, 50.842932",28,4.427376000000001,50.842347,4.425033999999999,50.842932
240,6477,1458,1,TOMBERG,"4.425034, 50.842932",MONTALD,"4.421193, 50.844086",28,4.425033999999999,50.842932,4.421193,50.844086
241,1458,1152,1,MONTALD,"4.421193, 50.844086",MEUDON,"4.41677, 50.844896",28,4.421193,50.844086,4.41677,50.844896000000006
242,1153,1459,1,DEGROOFF,"4.411504, 50.843612",GEORGES HENRI,"4.406278, 50.842922",28,4.411504,50.843612,4.4062779999999995,50.842921999999994
243,1459,1460,1,GEORGES HENRI,"4.406278, 50.842922",VERGOTE,"4.404551, 50.845828",28,4.4062779999999995,50.842921999999994,4.4045510000000005,50.845828000000004
244,1460,6450,1,VERGOTE,"4.404551, 50.845828",DIAMANT,"4.401668, 50.848802",28,4.4045510000000005,50.845828000000004,4.401668,50.848802
245,6450,1462,1,DIAMANT,"4.401668, 50.848802",VICTOR HUGO,"4.398087, 50.847998","28, 79",4.401668,50.848802,4.398087,50.847998
246,1462,6055,1,VICTOR HUGO,"4.398087, 50.847998",JAMBLINNE DE MEUX,"4.39326, 50.84706","28, 79",4.398087,50.847998,4.39326,50.84706
247,6055,6056,1,JAMBLINNE DE MEUX,"4.39326, 50.84706",CHASSEURS ARDEN.,"4.389839, 50.849111","28, 61",4.39326,50.84706,4.389839,50.849111
248,6056,2919,1,CHASSEURS ARDEN.,"4.389839, 50.849111",BRABANCONNE,"4.387125, 50.851647",28,4.389839,50.849111,4.387125,50.851647
249,2919,6021,2,BRABANCONNE,"4.387125, 50.851647",CHASSEURS ARDEN.,"4.389462, 50.849259",28,4.387125,50.851647,4.389462,50.849259
250,6021,1403,2,CHASSEURS ARDEN.,"4.389462, 50.849259",JAMBLINNE DE MEUX,"4.393729, 50.847236",28,4.389462,50.849259,4.393729,50.847235999999995
251,1403,1404,2,JAMBLINNE DE MEUX,"4.393729, 50.847236",VICTOR HUGO,"4.397407, 50.847707","28, 79",4.393729,50.847235999999995,4.397407,50.847707
252,1404,6449,2,VICTOR HUGO,"4.397407, 50.847707",DIAMANT,"4.401753, 50.848712",28,4.397407,50.847707,4.401753,50.848712
253,6449,1406,2,DIAMANT,"4.401753, 50.848712",VERGOTE,"4.403994, 50.845754",28,4.401753,50.848712,4.403994,50.845754
254,1406,1424,2,VERGOTE,"4.403994, 50.845754",GEORGES HENRI,"4.406462, 50.842274",28,4.403994,50.845754,4.406462,50.842273999999996
255,1424,1140,2,GEORGES HENRI,"4.406462, 50.842274",DEGROOFF,"4.411958, 50.843639",28,4.406462,50.842273999999996,4.411958,50.843639
256,1141,1408,2,MEUDON,"4.417254, 50.84508",MONTALD,"4.421288, 50.843986",28,4.417254,50.845079999999996,4.421288,50.843986
257,1408,6476,2,MONTALD,"4.421288, 50.843986",TOMBERG,"4.424814, 50.842837",28,4.421288,50.843986,4.424814,50.842837
258,6476,1410,2,TOMBERG,"4.424814, 50.842837",MELARD,"4.428398, 50.842013",28,4.424814,50.842837,4.4283980000000005,50.842013
259,1410,1421,2,MELARD,"4.428398, 50.842013",SLEGERS,"4.432368, 50.841465",28,4.4283980000000005,50.842013,4.432368,50.841465
260,1421,1412,2,SLEGERS,"4.432368, 50.841465",VOOT,"4.434987, 50.841014",28,4.432368,50.841465,4.4349870000000005,50.841014
261,1412,1422,2,VOOT,"4.434987, 50.841014",DEPORTES,"4.437871, 50.839795",28,4.4349870000000005,50.841014,4.437871,50.839795
262,1422,1423,2,DEPORTES,"4.437871, 50.839795",PARC MALOU,"4.440293, 50.840299",28,4.437871,50.839795,4.440293,50.840299
263,1423,1415,2,PARC MALOU,"4.440293, 50.840299",STADE FALLON,"4.443304, 50.841169",28,4.440293,50.840299,4.443304,50.841169
264,1415,1831,2,STADE FALLON,"4.443304, 50.841169",DON BOSCO,"4.448927, 50.841399",28,4.443304,50.841169,4.448926999999999,50.841398999999996
265,1831,1830,2,DON BOSCO,"4.448927, 50.841399",KONKEL,"4.450887, 50.842081",28,4.448926999999999,50.841398999999996,4.450887000000001,50.842081
266,1528,1552,1,HOF TEN BERG,"4.43867, 50.858827",JESPERS,"4.442065, 50.857664",29,4.43867,50.858827000000005,4.442065,50.857664
267,1552,1553,1,JESPERS,"4.442065, 50.857664",MARCEL THIRY,"4.438887, 50.854908",29,4.442065,50.857664,4.438887,50.854908
268,1553,1554,1,MARCEL THIRY,"4.438887, 50.854908",PEUPLIERS,"4.437386, 50.85249","29, 42, 45",4.438887,50.854908,4.437386,50.85249
269,1554,1550,1,PEUPLIERS,"4.437386, 50.85249",CHARMILLE,"4.434771, 50.851026","29, 42, 45",4.437386,50.85249,4.434771,50.851026
270,1550,1385,1,CHARMILLE,"4.434771, 50.851026",ROODEBEEK,"4.436351, 50.84779","29, 42, 45",4.434771,50.851026,4.436351,50.84779
271,1385,1578,1,ROODEBEEK,"4.436351, 50.84779",HYMANS,"4.43052, 50.846876",29,4.436351,50.84779,4.43052,50.846876
272,1578,3910,1,HYMANS,"4.43052, 50.846876",MOONENS,"4.428607, 50.848417",29,4.43052,50.846876,4.428607,50.848417
273,3910,1557,1,MOONENS,"4.428607, 50.848417",VERHEYLEWEGHEN,"4.424602, 50.848321",29,4.428607,50.848417,4.424601999999999,50.848321
274,1557,1558,1,VERHEYLEWEGHEN,"4.424602, 50.848321",SPEECKAERT,"4.420268, 50.848604",29,4.424601999999999,50.848321,4.420268,50.848603999999995
275,1558,1559,1,SPEECKAERT,"4.420268, 50.848604",HEYDENBERG,"4.416464, 50.848725",29,4.420268,50.848603999999995,4.4164639999999995,50.848725
276,1559,1560,1,HEYDENBERG,"4.416464, 50.848725",MAI,"4.414546, 50.848573",29,4.4164639999999995,50.848725,4.414546,50.848572999999995
277,1560,1561,1,MAI,"4.414546, 50.848573",LEVIE,"4.408895, 50.848054",29,4.414546,50.848572999999995,4.408894999999999,50.848054
278,1561,6454,1,LEVIE,"4.408895, 50.848054",DIAMANT,"4.40154, 50.849234",29,4.408894999999999,50.848054,4.40154,50.849234
279,3367,1565,1,PLASKY,"4.397163, 50.850698",RADIUM,"4.392029, 50.852816",29,4.397163,50.850698,4.392029,50.852816
280,1565,1566,1,RADIUM,"4.392029, 50.852816",DAILLY,"4.388052, 50.852527",29,4.392029,50.852816,4.388052,50.852527
281,1566,1567,1,DAILLY,"4.388052, 50.852527",VINCOTTE,"4.384174, 50.85153",29,4.388052,50.852527,4.384174,50.85153
282,1567,1568,1,VINCOTTE,"4.384174, 50.85153",CLOVIS,"4.381107, 50.849894",29,4.384174,50.85153,4.381107,50.849894
283,1568,3219,1,CLOVIS,"4.381107, 50.849894",WATERLOO WILSON,"4.381205, 50.847808",29,4.381107,50.849894,4.3812050000000005,50.847808
284,3219,1569,1,WATERLOO WILSON,"4.381205, 50.847808",GUTENBERG,"4.377147, 50.849132","29, 63",4.3812050000000005,50.847808,4.377147,50.849132
285,1569,1570,1,GUTENBERG,"4.377147, 50.849132",SAINT-JOSSE,"4.374063, 50.849814","29, 63",4.377147,50.849132,4.374063,50.849814
286,1570,1571,1,SAINT-JOSSE,"4.374063, 50.849814",MADOU,"4.369584, 50.849743","29, 63",4.374063,50.849814,4.369584,50.849743
287,1571,3358,1,MADOU,"4.369584, 50.849743",PRESSE,"4.367781, 50.847976","29, 63",4.369584,50.849743,4.367781,50.847976
288,3358,3237,1,PRESSE,"4.367781, 50.847976",PARC,"4.36355, 50.847651","29, 63, 65, 66",4.367781,50.847976,4.36355,50.847651
289,3237,3062,1,PARC,"4.36355, 50.847651",ROSA PARKS,"4.361212, 50.847297","29, 63, 65, 66",4.36355,50.847651,4.361212,50.847297
290,3062,6442,1,ROSA PARKS,"4.361212, 50.847297",GARE CENTRALE,"4.359369, 50.846506","29, 63, 65, 66",4.361212,50.847297,4.359369,50.846506
291,6442,2301,1,GARE CENTRALE,"4.359369, 50.846506",ARENBERG,"4.356881, 50.849265",29,4.359369,50.846506,4.356881,50.849265
292,2301,2595,1,ARENBERG,"4.356881, 50.849265",DE BROUCKERE,"4.35389, 50.850504","29, 71, 89",4.356881,50.849265,4.35389,50.850504
293,1820,2296,2,DE BROUCKERE,"4.3513, 50.850478",ARENBERG,"4.356478, 50.848166","29, 89",4.3513,50.850478,4.356478,50.848166
294,2296,6444,2,ARENBERG,"4.356478, 50.848166",GARE CENTRALE,"4.357792, 50.845927","29, 71",4.356478,50.848166,4.357792,50.845927
295,6444,3072,2,GARE CENTRALE,"4.357792, 50.845927",ROSA PARKS,"4.361439, 50.847396","29, 63, 65",4.357792,50.845927,4.361439,50.847396
296,3072,3150,2,ROSA PARKS,"4.361439, 50.847396",PARC,"4.363669, 50.84756","29, 63, 65, 66",4.361439,50.847396,4.363669,50.847559999999994
297,3150,3354,2,PARC,"4.363669, 50.84756",PRESSE,"4.36796, 50.848691","29, 63, 65, 66",4.363669,50.847559999999994,4.36796,50.848690999999995
298,3354,1508,2,PRESSE,"4.36796, 50.848691",MADOU,"4.369937, 50.849102","29, 63",4.36796,50.848690999999995,4.369937,50.849102
299,1508,1509,2,MADOU,"4.369937, 50.849102",SAINT-JOSSE,"4.374333, 50.849751","29, 63",4.369937,50.849102,4.374333,50.849751
300,1509,2680,2,SAINT-JOSSE,"4.374333, 50.849751",CLOVIS,"4.381149, 50.850586",29,4.374333,50.849751,4.381149,50.850586
301,2680,1512,2,CLOVIS,"4.381149, 50.850586",VINCOTTE,"4.384813, 50.85162",29,4.381149,50.850586,4.384812999999999,50.851620000000004
302,1512,1513,2,VINCOTTE,"4.384813, 50.85162",DAILLY,"4.388463, 50.852473",29,4.384812999999999,50.851620000000004,4.388463,50.852472999999996
303,1513,1514,2,DAILLY,"4.388463, 50.852473",RADIUM,"4.392447, 50.852399",29,4.388463,50.852472999999996,4.392447,50.852399
304,1514,3366,2,RADIUM,"4.392447, 50.852399",PLASKY,"4.397406, 50.850546",29,4.392447,50.852399,4.397406,50.850546
305,6451,1518,2,DIAMANT,"4.401571, 50.849103",LEVIE,"4.407745, 50.847919",29,4.401571,50.849103,4.407744999999999,50.847919
306,1518,1519,2,LEVIE,"4.407745, 50.847919",MAI,"4.413496, 50.848322",29,4.407744999999999,50.847919,4.413496,50.848321999999996
307,1519,1520,2,MAI,"4.413496, 50.848322",HEYDENBERG,"4.417628, 50.848617",29,4.413496,50.848321999999996,4.417628,50.848617
308,1520,1521,2,HEYDENBERG,"4.417628, 50.848617",SPEECKAERT,"4.420326, 50.848436",29,4.417628,50.848617,4.420326,50.848436
309,1521,1522,2,SPEECKAERT,"4.420326, 50.848436",VERHEYLEWEGHEN,"4.425145, 50.848165",29,4.420326,50.848436,4.425145,50.848165
310,3899,1529,2,MOONENS,"4.42883, 50.848419",HYMANS,"4.431215, 50.846731",29,4.4288300000000005,50.848419,4.431215,50.846731
311,1529,1379,2,HYMANS,"4.431215, 50.846731",ROODEBEEK,"4.436126, 50.847956",29,4.431215,50.846731,4.436126,50.847955999999996
312,1379,1540,2,ROODEBEEK,"4.436126, 50.847956",CHARMILLE,"4.434245, 50.850757",29,4.436126,50.847955999999996,4.434245,50.850757
313,1540,1525,2,CHARMILLE,"4.434245, 50.850757",PEUPLIERS,"4.437955, 50.852894","29, 42, 45",4.434245,50.850757,4.4379550000000005,50.852894
314,1525,1526,2,PEUPLIERS,"4.437955, 50.852894",MARCEL THIRY,"4.440581, 50.855664",29,4.4379550000000005,50.852894,4.440581,50.855664000000004
315,1526,1527,2,MARCEL THIRY,"4.440581, 50.855664",JESPERS,"4.441439, 50.857103",29,4.440581,50.855664000000004,4.441439,50.857103
316,1527,1528,2,JESPERS,"4.441439, 50.857103",HOF TEN BERG,"4.43867, 50.858827",29,4.441439,50.857103,4.43867,50.858827000000005
317,2177,3629,1,LOUISE,"4.355323, 50.83615",POELAERT,"4.353594, 50.838003",33,4.355323,50.83615,4.353594,50.838003
318,3629,6353,1,POELAERT,"4.353594, 50.838003",PETIT SABLON,"4.355459, 50.839354",33,4.353594,50.838003,4.355459,50.839354
319,6353,3630,1,PETIT SABLON,"4.355459, 50.839354",GRAND SABLON,"4.354148, 50.842189",33,4.355459,50.839354,4.354148,50.842189000000005
320,3630,1781,1,GRAND SABLON,"4.354148, 50.842189",GRAND-PLACE,"4.351728, 50.845003","33, 95",4.354148,50.842189000000005,4.351728,50.845003000000005
321,1781,2392,1,GRAND-PLACE,"4.351728, 50.845003",BOURSE,"4.348295, 50.846598",33,4.351728,50.845003000000005,4.348294999999999,50.846598
322,2392,1707,1,BOURSE,"4.348295, 50.846598",SAINT-GERY,"4.345838, 50.847746",33,4.348294999999999,50.846598,4.345838,50.847746
323,1707,3320,1,SAINT-GERY,"4.345838, 50.847746",BOURSE,"4.347381, 50.849372",33,4.345838,50.847746,4.3473809999999995,50.849371999999995
324,3320,3633,1,BOURSE,"4.347381, 50.849372",DANSAERT,"4.34437, 50.851142",33,4.3473809999999995,50.849371999999995,4.34437,50.851141999999996
325,3633,2212,2,DANSAERT,"4.34437, 50.851142",BOURSE,"4.3467, 50.848383",33,4.34437,50.851141999999996,4.3467,50.848383
326,2212,2578,2,BOURSE,"4.3467, 50.848383",ANNEESSENS,"4.346176, 50.845686",33,4.3467,50.848383,4.346176,50.845686
327,2578,1063,2,ANNEESSENS,"4.346176, 50.845686",CESAR DE PAEPE,"4.350818, 50.842901",33,4.346176,50.845686,4.350818,50.842901
328,1063,1127,2,CESAR DE PAEPE,"4.350818, 50.842901",CHAPELLE,"4.351814, 50.841246",33,4.350818,50.842901,4.351814,50.841246000000005
329,1127,1376,2,CHAPELLE,"4.351814, 50.841246",GRAND SABLON,"4.353383, 50.841413",33,4.351814,50.841246000000005,4.353383,50.841413
330,1376,1128,2,GRAND SABLON,"4.353383, 50.841413",PETIT SABLON,"4.355875, 50.839898","33, 95",4.353383,50.841413,4.355875,50.839898
331,1128,6354,2,PETIT SABLON,"4.355875, 50.839898",ROYALE,"4.358507, 50.841567","33, 95",4.355875,50.839898,4.358507,50.841567
332,6354,3505,2,ROYALE,"4.358507, 50.841567",PORTE DE NAMUR,"4.361604, 50.838945",33,4.358507,50.841567,4.361604,50.838945
333,3505,2177,2,PORTE DE NAMUR,"4.361604, 50.838945",LOUISE,"4.355323, 50.83615",33,4.361604,50.838945,4.355323,50.83615
334,2728,2752,1,SAINTE-ANNE,"4.436542, 50.818216",DEUX CHAUSSEES,"4.434396, 50.81639",34,4.436542,50.818216,4.434396,50.816390000000006
335,2752,2753,1,DEUX CHAUSSEES,"4.434396, 50.81639",BERGOJE,"4.428918, 50.816078",34,4.434396,50.816390000000006,4.428918,50.816078000000005
336,2753,2009,1,BERGOJE,"4.428918, 50.816078",ROND-PT SOUVERAIN,"4.427289, 50.818551",34,4.428918,50.816078000000005,4.427289,50.818551
337,2009,1751,1,ROND-PT SOUVERAIN,"4.427289, 50.818551",AUDERGHEM-SHOP.,"4.424406, 50.816872",34,4.427289,50.818551,4.424405999999999,50.816872
338,1751,1756,1,AUDERGHEM-SHOP.,"4.424406, 50.816872",VALDUC,"4.41971, 50.817791",34,4.424405999999999,50.816872,4.41971,50.817791
339,1756,1757,1,VALDUC,"4.41971, 50.817791",VANDROMME,"4.415298, 50.819006",34,4.41971,50.817791,4.415298,50.819006
340,1757,1758,1,VANDROMME,"4.415298, 50.819006",EGLISE ST-JULIEN,"4.408234, 50.821065",34,4.415298,50.819006,4.408233999999999,50.821065000000004
341,1758,2290,1,EGLISE ST-JULIEN,"4.408234, 50.821065",HANKAR,"4.405568, 50.821815",34,4.408233999999999,50.821065000000004,4.405568,50.821815
342,2290,1760,1,HANKAR,"4.405568, 50.821815",STRATEGIE,"4.400869, 50.823982",34,4.405568,50.821815,4.400869,50.823982
343,1760,1779,1,STRATEGIE,"4.400869, 50.823982",ARSENAL,"4.397704, 50.82588",34,4.400869,50.823982,4.397704,50.82588
344,1779,1762,1,ARSENAL,"4.397704, 50.82588",BUEDTS,"4.39335, 50.828506",34,4.397704,50.82588,4.39335,50.828506
345,1762,1278,1,BUEDTS,"4.39335, 50.828506",LA CHASSE,"4.390926, 50.829955",34,4.39335,50.828506,4.390926,50.829955
346,1278,1764,1,LA CHASSE,"4.390926, 50.829955",FETIS,"4.386241, 50.833029",34,4.390926,50.829955,4.386241,50.833028999999996
347,1764,1777,1,FETIS,"4.386241, 50.833029",ETANGS,"4.379721, 50.835875",34,4.386241,50.833028999999996,4.379721,50.835875
348,1777,1769,1,ETANGS,"4.379721, 50.835875",MUSEUM,"4.374913, 50.835839",34,4.379721,50.835875,4.374912999999999,50.835839
349,1769,1983,1,MUSEUM,"4.374913, 50.835839",IDALIE,"4.370789, 50.836394","34, 80",4.374912999999999,50.835839,4.370789,50.836394
350,1983,4367,1,IDALIE,"4.370789, 50.836394",LUXEMBOURG,"4.372821, 50.838176","34, 38, 80, 95",4.370789,50.836394,4.372821,50.838176000000004
351,4367,1776,1,LUXEMBOURG,"4.372821, 50.838176",SCIENCE,"4.369258, 50.839925","34, 38, 80, 95",4.372821,50.838176000000004,4.369258,50.839925
352,1776,6432,1,SCIENCE,"4.369258, 50.839925",TRONE,"4.366324, 50.840537","34, 38, 64, 80, 95",4.369258,50.839925,4.366324,50.840537
353,6432,4952,1,TRONE,"4.366324, 50.840537",PORTE DE NAMUR,"4.363086, 50.838883","34, 64, 80",4.366324,50.840537,4.363086,50.838883
354,1824,6433,2,PORTE DE NAMUR,"4.364629, 50.839652",TRONE,"4.367127, 50.840315","34, 80",4.364629,50.839652,4.367127,50.840315000000004
355,6433,1729,2,TRONE,"4.367127, 50.840315",SCIENCE,"4.369371, 50.839842","34, 38, 64, 80, 95",4.367127,50.840315000000004,4.369371,50.839842
356,1729,1233,2,SCIENCE,"4.369371, 50.839842",LUXEMBOURG,"4.372733, 50.838936","34, 38, 80, 95",4.369371,50.839842,4.372733,50.838936
357,1233,1706,2,LUXEMBOURG,"4.372733, 50.838936",IDALIE,"4.372487, 50.83592","34, 80",4.372733,50.838936,4.3724870000000005,50.83592
358,1706,1728,2,IDALIE,"4.372487, 50.83592",MUSEUM,"4.37717, 50.835745","34, 80",4.3724870000000005,50.83592,4.37717,50.835745
359,1728,1733,2,MUSEUM,"4.37717, 50.835745",ETANGS,"4.380861, 50.835493",34,4.37717,50.835745,4.380861,50.835493
360,1733,1712,2,ETANGS,"4.380861, 50.835493",FETIS,"4.385801, 50.833227",34,4.380861,50.835493,4.385801,50.833227
361,1712,1713,2,FETIS,"4.385801, 50.833227",LA CHASSE,"4.38932, 50.83088",34,4.385801,50.833227,4.38932,50.83088
362,1713,1714,2,LA CHASSE,"4.38932, 50.83088",BUEDTS,"4.393776, 50.828191",34,4.38932,50.83088,4.393776,50.828191
363,1714,1715,2,BUEDTS,"4.393776, 50.828191",ARSENAL,"4.396727, 50.826393",34,4.393776,50.828191,4.396726999999999,50.826392999999996
364,1715,1716,2,ARSENAL,"4.396727, 50.826393",STRATEGIE,"4.400458, 50.824135",34,4.396726999999999,50.826392999999996,4.400458,50.824135
365,1716,2291,2,STRATEGIE,"4.400458, 50.824135",HANKAR,"4.405707, 50.821725",34,4.400458,50.824135,4.405707,50.821725
366,2291,1718,2,HANKAR,"4.405707, 50.821725",EGLISE ST-JULIEN,"4.409552, 50.820617",34,4.405707,50.821725,4.409552,50.820617
367,1718,1719,2,EGLISE ST-JULIEN,"4.409552, 50.820617",VANDROMME,"4.414807, 50.819093",34,4.409552,50.820617,4.414807,50.819093
368,1719,1720,2,VANDROMME,"4.414807, 50.819093",VALDUC,"4.421282, 50.817395",34,4.414807,50.819093,4.421282,50.817395
369,1720,1731,2,VALDUC,"4.421282, 50.817395",AUDERGHEM-SHOP.,"4.425399, 50.816646",34,4.421282,50.817395,4.425399,50.816646
370,1731,2058,2,AUDERGHEM-SHOP.,"4.425399, 50.816646",ROND-PT SOUVERAIN,"4.427715, 50.818479",34,4.425399,50.816646,4.427715,50.818478999999996
371,2058,2725,2,ROND-PT SOUVERAIN,"4.427715, 50.818479",BERGOJE,"4.429216, 50.81597",34,4.427715,50.818478999999996,4.429216,50.81597
372,2725,2727,2,BERGOJE,"4.429216, 50.81597",DEUX CHAUSSEES,"4.434921, 50.816381",34,4.429216,50.81597,4.434921,50.816381
373,2727,2728,2,DEUX CHAUSSEES,"4.434921, 50.816381",SAINTE-ANNE,"4.436542, 50.818216",34,4.434921,50.816381,4.436542,50.818216
374,1830,1846,1,KONKEL,"4.450887, 50.842081",VAL DES SEIGNEURS,"4.45693, 50.841945",36,4.450887000000001,50.842081,4.456930000000001,50.841945
375,1846,1847,1,VAL DES SEIGNEURS,"4.45693, 50.841945",GERSIS,"4.459907, 50.841108",36,4.456930000000001,50.841945,4.459907,50.841108
376,1847,1302,1,GERSIS,"4.459907, 50.841108",STOCKEL,"4.463803, 50.839796",36,4.459907,50.841108,4.4638029999999995,50.839796
377,1302,1840,1,STOCKEL,"4.463803, 50.839796",BOULEAUX,"4.467214, 50.83698",36,4.4638029999999995,50.839796,4.467214,50.83698
378,1840,1850,1,BOULEAUX,"4.467214, 50.83698",PADDOCK,"4.463477, 50.833162",36,4.467214,50.83698,4.463476999999999,50.833162
379,1850,1851,1,PADDOCK,"4.463477, 50.833162",SAINTE-ALIX,"4.462659, 50.828542",36,4.463476999999999,50.833162,4.4626589999999995,50.828542
380,1851,1852,1,SAINTE-ALIX,"4.462659, 50.828542",VANDER MEERSCHEN,"4.456976, 50.825841",36,4.4626589999999995,50.828542,4.456976,50.825841
381,1852,1853,1,VANDER MEERSCHEN,"4.456976, 50.825841",MANOIR D'ANJOU,"4.455366, 50.829269",36,4.456976,50.825841,4.455366000000001,50.829269000000004
382,1853,1854,1,MANOIR D'ANJOU,"4.455366, 50.829269",RUE AU BOIS,"4.452259, 50.831085",36,4.455366000000001,50.829269000000004,4.452259,50.831084999999995
383,1854,1841,1,RUE AU BOIS,"4.452259, 50.831085",MAREYDE,"4.446584, 50.832842",36,4.452259,50.831084999999995,4.446584,50.832842
384,1841,1856,1,MAREYDE,"4.446584, 50.832842",MERTENS,"4.443634, 50.831564",36,4.446584,50.832842,4.443633999999999,50.831564
385,1856,1857,1,MERTENS,"4.443634, 50.831564",KELLE,"4.437821, 50.8314",36,4.443633999999999,50.831564,4.437821,50.8314
386,1857,5273,1,KELLE,"4.437821, 50.8314",MUSEE DU TRAM,"4.43246, 50.832238",36,4.437821,50.8314,4.43246,50.832238000000004
387,5273,1859,1,MUSEE DU TRAM,"4.43246, 50.832238",CHIEN VERT,"4.429254, 50.834884",36,4.43246,50.832238000000004,4.429254,50.834884
388,1859,1860,1,CHIEN VERT,"4.429254, 50.834884",JULES CESAR,"4.420338, 50.833549",36,4.429254,50.834884,4.420338,50.833549
389,1860,1861,1,JULES CESAR,"4.420338, 50.833549",OCEAN ATLANTIQUE,"4.418354, 50.830996",36,4.420338,50.833549,4.418354,50.830996
390,1861,1862,1,OCEAN ATLANTIQUE,"4.418354, 50.830996",CHANT D'OISEAU,"4.418128, 50.827961",36,4.418354,50.830996,4.418128,50.827961
391,1862,1863,1,CHANT D'OISEAU,"4.418128, 50.827961",MOUETTES,"4.41529, 50.82502",36,4.418128,50.827961,4.41529,50.82502
392,1863,1864,1,MOUETTES,"4.41529, 50.82502",DREVE DE NIVELLES,"4.412728, 50.826031",36,4.41529,50.82502,4.4127279999999995,50.826031
393,1864,1865,1,DREVE DE NIVELLES,"4.412728, 50.826031",BARON DE CASTRO,"4.408268, 50.82878",36,4.4127279999999995,50.826031,4.408268,50.82878
394,1865,1866,1,BARON DE CASTRO,"4.408268, 50.82878",BOILEAU,"4.404083, 50.832162",36,4.408268,50.82878,4.404083,50.832162
395,1866,6472,1,BOILEAU,"4.404083, 50.832162",THIEFFRY,"4.401811, 50.832934",36,4.404083,50.832162,4.401811,50.832934
396,6472,1868,1,THIEFFRY,"4.401811, 50.832934",ROI VAINQUEUR,"4.398917, 50.832883",36,4.401811,50.832934,4.398917,50.832883
397,1868,1869,1,ROI VAINQUEUR,"4.398917, 50.832883",ONZE NOVEMBRE,"4.395933, 50.832786",36,4.398917,50.832883,4.395933,50.832786
398,1869,1870,1,ONZE NOVEMBRE,"4.395933, 50.832786",LA CHASSE,"4.389874, 50.831161",36,4.395933,50.832786,4.389874,50.831161
399,1870,1871,1,LA CHASSE,"4.389874, 50.831161",LOUIS HAP,"4.388065, 50.834694",36,4.389874,50.831161,4.388065,50.834694
400,1871,1872,1,LOUIS HAP,"4.388065, 50.834694",LEMAN,"4.386689, 50.837284",36,4.388065,50.834694,4.386689,50.837284000000004
401,1872,1873,1,LEMAN,"4.386689, 50.837284",NERVIENS,"4.385817, 50.839106",36,4.386689,50.837284000000004,4.385816999999999,50.839106
402,1873,1476,1,NERVIENS,"4.385817, 50.839106",FROISSART,"4.381885, 50.8405",36,4.385816999999999,50.839106,4.381885,50.8405
403,1476,6464,1,FROISSART,"4.381885, 50.8405",MAELBEEK,"4.378319, 50.843725","36, 59",4.381885,50.8405,4.378319,50.843725
404,2719,3080,2,MAELBEEK,"4.378052, 50.84433",MARIE-LOUISE,"4.377555, 50.845024",36,4.378051999999999,50.84433,4.377555,50.845024
405,3080,6465,2,MARIE-LOUISE,"4.377555, 50.845024",MAELBEEK,"4.378072, 50.843551","36, 56, 59, 64, 79",4.377555,50.845024,4.378072,50.843551
406,6465,1802,2,MAELBEEK,"4.378072, 50.843551",NERVIENS,"4.385732, 50.838755",36,4.378072,50.843551,4.385732,50.838755
407,1802,1803,2,NERVIENS,"4.385732, 50.838755",LEMAN,"4.38664, 50.837065",36,4.385732,50.838755,4.38664,50.837065
408,1803,1804,2,LEMAN,"4.38664, 50.837065",LOUIS HAP,"4.388044, 50.83435",36,4.38664,50.837065,4.388044,50.83435
409,1804,2395,2,LOUIS HAP,"4.388044, 50.83435",LA CHASSE,"4.390583, 50.830979",36,4.388044,50.83435,4.390583,50.830979
410,2395,1806,2,LA CHASSE,"4.390583, 50.830979",ONZE NOVEMBRE,"4.395101, 50.832789",36,4.390583,50.830979,4.395101,50.832789
411,1806,1807,2,ONZE NOVEMBRE,"4.395101, 50.832789",ROI VAINQUEUR,"4.398901, 50.83226",36,4.395101,50.832789,4.398901,50.83226
412,1807,6473,2,ROI VAINQUEUR,"4.398901, 50.83226",THIEFFRY,"4.401926, 50.832846",36,4.398901,50.83226,4.4019260000000004,50.832846
413,6473,1809,2,THIEFFRY,"4.401926, 50.832846",BOILEAU,"4.404636, 50.831532",36,4.4019260000000004,50.832846,4.404636,50.831532
414,1809,1810,2,BOILEAU,"4.404636, 50.831532",BARON DE CASTRO,"4.407946, 50.828744",36,4.404636,50.831532,4.407946,50.828744
415,1810,1811,2,BARON DE CASTRO,"4.407946, 50.828744",DREVE DE NIVELLES,"4.411843, 50.826613",36,4.407946,50.828744,4.411843,50.826613
416,1811,1812,2,DREVE DE NIVELLES,"4.411843, 50.826613",MOUETTES,"4.414481, 50.824949",36,4.411843,50.826613,4.414480999999999,50.824949
417,1812,1813,2,MOUETTES,"4.414481, 50.824949",CHANT D'OISEAU,"4.41822, 50.827185",36,4.414480999999999,50.824949,4.41822,50.827185
418,1813,1814,2,CHANT D'OISEAU,"4.41822, 50.827185",OCEAN ATLANTIQUE,"4.418486, 50.830501",36,4.41822,50.827185,4.418486,50.830501
419,1814,1815,2,OCEAN ATLANTIQUE,"4.418486, 50.830501",MOSTINCK,"4.423319, 50.833278",36,4.418486,50.830501,4.423319,50.833278
420,1815,1816,2,MOSTINCK,"4.423319, 50.833278",CHIEN VERT,"4.427014, 50.834522",36,4.423319,50.833278,4.427014,50.834522
421,1816,5287,2,CHIEN VERT,"4.427014, 50.834522",MUSEE DU TRAM,"4.432601, 50.831884",36,4.427014,50.834522,4.432601,50.831884
422,5287,1818,2,MUSEE DU TRAM,"4.432601, 50.831884",KELLE,"4.438019, 50.831355",36,4.432601,50.831884,4.438019000000001,50.831355
423,1818,1819,2,KELLE,"4.438019, 50.831355",MERTENS,"4.443557, 50.831502",36,4.438019000000001,50.831355,4.443557,50.831502
424,1819,1834,2,MERTENS,"4.443557, 50.831502",MAREYDE,"4.446811, 50.832914",36,4.443557,50.831502,4.446811,50.832914
425,1834,1821,2,MAREYDE,"4.446811, 50.832914",RUE AU BOIS,"4.452485, 50.831349",36,4.446811,50.832914,4.452485,50.831348999999996
426,1821,1822,2,RUE AU BOIS,"4.452485, 50.831349",MANOIR D'ANJOU,"4.456118, 50.828395",36,4.452485,50.831348999999996,4.456118,50.828395
427,1822,1823,2,MANOIR D'ANJOU,"4.456118, 50.828395",VANDER MEERSCHEN,"4.457146, 50.825859",36,4.456118,50.828395,4.457146,50.825859
428,1823,1825,2,VANDER MEERSCHEN,"4.457146, 50.825859",SAINTE-ALIX,"4.463049, 50.828376",36,4.457146,50.825859,4.463049,50.828376
429,1825,1826,2,SAINTE-ALIX,"4.463049, 50.828376",PADDOCK,"4.463862, 50.832598",36,4.463049,50.828376,4.463862000000001,50.832598
430,1826,1835,2,PADDOCK,"4.463862, 50.832598",BOULEAUX,"4.467474, 50.836926",36,4.463862000000001,50.832598,4.467474,50.836926
431,1835,1252,2,BOULEAUX,"4.467474, 50.836926",STOCKEL,"4.462754, 50.840858",36,4.467474,50.836926,4.462754,50.840858000000004
432,1252,1828,2,STOCKEL,"4.462754, 50.840858",GERSIS,"4.459728, 50.841322",36,4.462754,50.840858000000004,4.459728,50.841322
433,1828,1829,2,GERSIS,"4.459728, 50.841322",VAL DES SEIGNEURS,"4.456536, 50.842242",36,4.459728,50.841322,4.456536,50.842242
434,1829,1830,2,VAL DES SEIGNEURS,"4.456536, 50.842242",KONKEL,"4.450887, 50.842081",36,4.456536,50.842242,4.450887000000001,50.842081
435,1936,1944,1,GARE DE LINKEBEEK,"4.338942, 50.774094",HOSPICES,"4.339069, 50.776778","37, 43",4.338941999999999,50.774094,4.339069,50.776778
436,1944,1938,1,HOSPICES,"4.339069, 50.776778",HOMBORCH,"4.338295, 50.77961","37, 43",4.339069,50.776778,4.338295,50.77961
437,1938,2099,1,HOMBORCH,"4.338295, 50.77961",GAZELLE,"4.341228, 50.782011","37, 43",4.338295,50.77961,4.341228,50.782011
438,2099,2112,1,GAZELLE,"4.341228, 50.782011",PASTEUR,"4.349198, 50.780305","37, 43",4.341228,50.782011,4.349198,50.780305
439,2112,2103,1,PASTEUR,"4.349198, 50.780305",VERREWINKEL,"4.354473, 50.778337","37, 43",4.349198,50.780305,4.3544730000000005,50.778337
440,2103,2104,1,VERREWINKEL,"4.354473, 50.778337",GUI,"4.35701, 50.782621","37, 43",4.3544730000000005,50.778337,4.35701,50.782621
441,2104,1630,1,GUI,"4.35701, 50.782621",DIRECTOIRE,"4.359647, 50.78918",37,4.35701,50.782621,4.359647,50.78918
442,1630,1343,1,DIRECTOIRE,"4.359647, 50.78918",DE WANSIJN,"4.357665, 50.791908",37,4.359647,50.78918,4.357665,50.791908
443,1343,1429,1,DE WANSIJN,"4.357665, 50.791908",DROSSART,"4.351807, 50.7925",37,4.357665,50.791908,4.351807,50.7925
444,1429,1430,1,DROSSART,"4.351807, 50.7925",DIEWEG,"4.349612, 50.794963",37,4.351807,50.7925,4.3496120000000005,50.794963
445,7332,4804,1,LANCASTER,"4.357854, 50.794677",MERCURE,"4.356449, 50.796825",37,4.357854,50.794677,4.356449,50.796825
446,4804,4857,1,MERCURE,"4.356449, 50.796825",OBSERVATOIRE,"4.358567, 50.799553",37,4.356449,50.796825,4.358567,50.799553
447,4857,1250,1,OBSERVATOIRE,"4.358567, 50.799553",HOUZEAU,"4.358807, 50.80305",37,4.358567,50.799553,4.358807,50.80305
448,1250,1921,1,HOUZEAU,"4.358807, 50.80305",HOUZEAU,"4.356523, 50.804353",37,4.358807,50.80305,4.356523,50.804353000000006
449,1921,1942,1,HOUZEAU,"4.356523, 50.804353",STATUAIRES,"4.349047, 50.803921","37, 38, 41",4.356523,50.804353000000006,4.3490470000000006,50.803921
450,1942,2355,1,STATUAIRES,"4.349047, 50.803921",HEROS,"4.342194, 50.803139",37,4.3490470000000006,50.803921,4.342194,50.803139
451,2355,1632,1,HEROS,"4.342194, 50.803139",COLLEGE ST-PIERRE,"4.34079, 50.806433",37,4.342194,50.803139,4.34079,50.806433
452,1632,1633,1,COLLEGE ST-PIERRE,"4.34079, 50.806433",PEYO,"4.340145, 50.81049",37,4.34079,50.806433,4.340145,50.81049
453,1633,1636,1,PEYO,"4.340145, 50.81049",COGHEN,"4.339161, 50.814107",37,4.340145,50.81049,4.339161,50.814107
454,1636,5858,1,COGHEN,"4.339161, 50.814107",MOLIERE-LONGCHAMP,"4.340144, 50.816405",37,4.339161,50.814107,4.3401440000000004,50.816404999999996
455,5858,5859,1,MOLIERE-LONGCHAMP,"4.340144, 50.816405",TIMMERMANS,"4.341236, 50.818968",37,4.3401440000000004,50.816404999999996,4.341236,50.818968
456,5859,2934,1,TIMMERMANS,"4.341236, 50.818968",ALBERT,"4.341617, 50.821665",37,4.341236,50.818968,4.341616999999999,50.821665
457,2957,5810,2,ALBERT,"4.341859, 50.821413",TIMMERMANS,"4.340952, 50.818572",37,4.3418589999999995,50.821413,4.340952,50.818571999999996
458,5810,5811,2,TIMMERMANS,"4.340952, 50.818572",MOLIERE-LONGCHAMP,"4.339974, 50.816262",37,4.340952,50.818571999999996,4.339974,50.816262
459,5811,1648,2,MOLIERE-LONGCHAMP,"4.339974, 50.816262",COGHEN,"4.33906, 50.814015",37,4.339974,50.816262,4.33906,50.814015000000005
460,1648,1649,2,COGHEN,"4.33906, 50.814015",PEYO,"4.339828, 50.809923",37,4.33906,50.814015000000005,4.339828,50.809923
461,1649,1650,2,PEYO,"4.339828, 50.809923",COLLEGE ST-PIERRE,"4.340894, 50.805949",37,4.339828,50.809923,4.3408940000000005,50.805949
462,1650,1651,2,COLLEGE ST-PIERRE,"4.340894, 50.805949",HEROS,"4.342061, 50.803597",37,4.3408940000000005,50.805949,4.342061,50.803596999999996
463,1651,1943,2,HEROS,"4.342061, 50.803597",STATUAIRES,"4.349486, 50.803912",37,4.342061,50.803596999999996,4.349486,50.803912
464,1943,1968,2,STATUAIRES,"4.349486, 50.803912",ZEECRABBE,"4.354864, 50.804313","37, 38, 41",4.349486,50.803912,4.354864,50.804313
465,1968,1969,2,ZEECRABBE,"4.354864, 50.804313",HOUZEAU,"4.358041, 50.804084","37, 38, 41",4.354864,50.804313,4.358041,50.804084
466,1969,1251,2,HOUZEAU,"4.358041, 50.804084",HOUZEAU,"4.358749, 50.803621",37,4.358041,50.804084,4.3587489999999995,50.803621
467,1251,4856,2,HOUZEAU,"4.358749, 50.803621",OBSERVATOIRE,"4.35773, 50.799526",37,4.3587489999999995,50.803621,4.35773,50.799526
468,4856,1427,2,OBSERVATOIRE,"4.35773, 50.799526",MERCURE,"4.354912, 50.797724",37,4.35773,50.799526,4.354912000000001,50.797724
469,1427,7330,2,MERCURE,"4.354912, 50.797724",DIEWEG,"4.348866, 50.795596",37,4.354912000000001,50.797724,4.348866,50.795596
470,7330,1347,2,DIEWEG,"4.348866, 50.795596",DROSSART,"4.352949, 50.792014",37,4.348866,50.795596,4.352949,50.792014
471,1344,2153,2,DE WANSIJN,"4.356808, 50.791807",DIRECTOIRE,"4.359525, 50.789605",37,4.356808,50.791807,4.359525,50.789605
472,2153,2156,2,DIRECTOIRE,"4.359525, 50.789605",GUI,"4.356859, 50.782373",37,4.359525,50.789605,4.356859,50.782373
473,2156,2157,2,GUI,"4.356859, 50.782373",VERREWINKEL,"4.354289, 50.77804","37, 43",4.356859,50.782373,4.354289,50.778040000000004
474,2157,2161,2,VERREWINKEL,"4.354289, 50.77804",PASTEUR,"4.349113, 50.780341","37, 43",4.354289,50.778040000000004,4.349113,50.780341
475,2161,2167,2,PASTEUR,"4.349113, 50.780341",GAZELLE,"4.341157, 50.782155","37, 43",4.349113,50.780341,4.341157,50.782154999999996
476,2167,2168,2,GAZELLE,"4.341157, 50.782155",HOMBORCH,"4.338791, 50.779458","37, 43",4.341157,50.782154999999996,4.3387910000000005,50.779458
477,2168,1953,2,HOMBORCH,"4.338791, 50.779458",CABRIS,"4.342435, 50.776272","37, 43",4.3387910000000005,50.779458,4.342435,50.776272
478,1953,1954,2,CABRIS,"4.342435, 50.776272",GARE DE LINKEBEEK,"4.338772, 50.774085","37, 43",4.342435,50.776272,4.3387720000000005,50.774085
479,4076,1943,1,HEROS,"4.341826, 50.803083",STATUAIRES,"4.349486, 50.803912","38, 41",4.341826,50.803083,4.349486,50.803912
480,1969,1970,1,HOUZEAU,"4.358041, 50.804084",FLORIDE,"4.361942, 50.803733","38, 41",4.358041,50.804084,4.361942,50.803733
481,1970,1971,1,FLORIDE,"4.361942, 50.803733",RENE GOBERT,"4.366326, 50.806745",38,4.361942,50.803733,4.366326,50.806745
482,1971,1972,1,RENE GOBERT,"4.366326, 50.806745",MONTJOIE,"4.364538, 50.810053",38,4.366326,50.806745,4.364538,50.810053
483,1972,1973,1,MONTJOIE,"4.364538, 50.810053",GOSSART,"4.362587, 50.811068",38,4.364538,50.810053,4.362587,50.811068
484,1973,5255,1,GOSSART,"4.362587, 50.811068",LONGCHAMP,"4.367858, 50.811977",38,4.362587,50.811068,4.367858,50.811977
485,5255,1975,1,LONGCHAMP,"4.367858, 50.811977",BASCULE,"4.366957, 50.816034",38,4.367858,50.811977,4.366957,50.816034
486,1975,1976,1,BASCULE,"4.366957, 50.816034",VAN EYCK,"4.366581, 50.821452",38,4.366957,50.816034,4.366581,50.821452
487,1976,1977,1,VAN EYCK,"4.366581, 50.821452",VLEURGAT,"4.367848, 50.823501",38,4.366581,50.821452,4.367848,50.823501
488,1977,1986,1,VLEURGAT,"4.367848, 50.823501",BIARRITZ,"4.369757, 50.825853",38,4.367848,50.823501,4.369757,50.825853
489,1986,6112,1,BIARRITZ,"4.369757, 50.825853",FLAGEY,"4.372017, 50.828273",38,4.369757,50.825853,4.372017,50.828272999999996
490,6112,1980,1,FLAGEY,"4.372017, 50.828273",MALIBRAN,"4.373493, 50.830576",38,4.372017,50.828272999999996,4.373493,50.830576
491,1980,1981,1,MALIBRAN,"4.373493, 50.830576",BLYCKAERTS,"4.374767, 50.833175",38,4.373493,50.830576,4.374766999999999,50.833175
492,1981,1983,1,BLYCKAERTS,"4.374767, 50.833175",IDALIE,"4.370789, 50.836394","38, 95",4.374766999999999,50.833175,4.370789,50.836394
493,6432,1124,1,TRONE,"4.366324, 50.840537",TRONE,"4.364819, 50.841632","38, 95",4.366324,50.840537,4.364819000000001,50.841632000000004
494,1124,3567,1,TRONE,"4.364819, 50.841632",ROYALE,"4.358813, 50.842748",38,4.364819000000001,50.841632000000004,4.358813,50.842748
495,3567,1003,1,ROYALE,"4.358813, 50.842748",GARE CENTRALE,"4.359615, 50.844659","38, 71",4.358813,50.842748,4.359615,50.844659
496,1003,1000,1,GARE CENTRALE,"4.359615, 50.844659",GARE CENTRALE,"4.359617, 50.8451",38,4.359615,50.844659,4.359617,50.8451
497,2788,1001,2,GARE CENTRALE,"4.357538, 50.845464",GARE CENTRALE,"4.356926, 50.844568",38,4.357538,50.845464,4.3569260000000005,50.844568
498,1001,3503,2,GARE CENTRALE,"4.356926, 50.844568",ROYALE,"4.35897, 50.842487",38,4.3569260000000005,50.844568,4.358969999999999,50.842487
499,3503,6433,2,ROYALE,"4.35897, 50.842487",TRONE,"4.367127, 50.840315",38,4.358969999999999,50.842487,4.367127,50.840315000000004
500,1233,1906,2,LUXEMBOURG,"4.372733, 50.838936",IDALIE,"4.372173, 50.835179","38, 95",4.372733,50.838936,4.372173,50.835179
501,1906,1909,2,IDALIE,"4.372173, 50.835179",BLYCKAERTS,"4.374842, 50.83294","38, 95",4.372173,50.835179,4.374842,50.83294
502,1909,1910,2,BLYCKAERTS,"4.374842, 50.83294",MALIBRAN,"4.373536, 50.830855",38,4.374842,50.83294,4.373536,50.830855
503,1910,3122,2,MALIBRAN,"4.373536, 50.830855",FLAGEY,"4.371704, 50.82804",38,4.373536,50.830855,4.371704,50.82804
504,3122,1903,2,FLAGEY,"4.371704, 50.82804",BIARRITZ,"4.369486, 50.825678",38,4.371704,50.82804,4.369486,50.825678
505,1903,1912,2,BIARRITZ,"4.369486, 50.825678",VLEURGAT,"4.367669, 50.823557",38,4.369486,50.825678,4.367669,50.823557
506,1912,1913,2,VLEURGAT,"4.367669, 50.823557",VAN EYCK,"4.366233, 50.819647",38,4.367669,50.823557,4.366233,50.819646999999996
507,1913,1914,2,VAN EYCK,"4.366233, 50.819647",PATTON,"4.366481, 50.817394",38,4.366233,50.819646999999996,4.366480999999999,50.817394
508,1914,1915,2,PATTON,"4.366481, 50.817394",BASCULE,"4.367106, 50.815338",38,4.366480999999999,50.817394,4.367106,50.815338
509,1915,1916,2,BASCULE,"4.367106, 50.815338",LONGCHAMP,"4.367336, 50.812034",38,4.367106,50.815338,4.367336,50.812034000000004
510,1916,1917,2,LONGCHAMP,"4.367336, 50.812034",GOSSART,"4.362452, 50.811096",38,4.367336,50.812034000000004,4.362451999999999,50.811096
511,1917,1918,2,GOSSART,"4.362452, 50.811096",MONTJOIE,"4.365162, 50.809738",38,4.362451999999999,50.811096,4.365162000000001,50.809738
512,1918,1919,2,MONTJOIE,"4.365162, 50.809738",RENE GOBERT,"4.366364, 50.806357",38,4.365162000000001,50.809738,4.366364,50.806357
513,1919,1920,2,RENE GOBERT,"4.366364, 50.806357",FLORIDE,"4.361786, 50.803796",38,4.366364,50.806357,4.361786,50.803796000000006
514,1920,1921,2,FLORIDE,"4.361786, 50.803796",HOUZEAU,"4.356523, 50.804353","38, 41",4.361786,50.803796000000006,4.356523,50.804353000000006
515,1942,4076,2,STATUAIRES,"4.349047, 50.803921",HEROS,"4.341826, 50.803083","38, 41",4.3490470000000006,50.803921,4.341826,50.803083
516,1725,1752,1,TRANSVAAL,"4.435562, 50.808245",SACRE-COEUR,"4.435688, 50.810343",41,4.435562,50.808245,4.435688,50.810342999999996
517,1752,1753,1,SACRE-COEUR,"4.435688, 50.810343",SCHOONEJANS,"4.432488, 50.811842",41,4.435688,50.810342999999996,4.432487999999999,50.811842
518,1753,1754,1,SCHOONEJANS,"4.432488, 50.811842",HERRMANN-DEBROUX,"4.428388, 50.812487",41,4.432487999999999,50.811842,4.428388,50.812487
519,1754,6468,1,HERRMANN-DEBROUX,"4.428388, 50.812487",DEMEY,"4.422657, 50.813187","41, 72",4.428388,50.812487,4.422657,50.813187
520,6468,4407,1,DEMEY,"4.422657, 50.813187",VIGNETTE,"4.419678, 50.814222","41, 72",4.422657,50.813187,4.419678,50.814221999999994
521,4407,4452,1,VIGNETTE,"4.419678, 50.814222",PECHERIES,"4.417406, 50.81282",41,4.419678,50.814221999999994,4.417406,50.81282
522,4452,4449,1,PECHERIES,"4.417406, 50.81282",TRITOMAS,"4.418484, 50.810857",41,4.417406,50.81282,4.418483999999999,50.810857
523,4449,4454,1,TRITOMAS,"4.418484, 50.810857",ARCHIDUCS,"4.416127, 50.810259",41,4.418483999999999,50.810857,4.4161269999999995,50.810259
524,4454,4455,1,ARCHIDUCS,"4.416127, 50.810259",HANNETONS,"4.411197, 50.81102",41,4.4161269999999995,50.810259,4.4111970000000005,50.81102
525,4455,4456,1,HANNETONS,"4.411197, 50.81102",LOUTRIER,"4.407004, 50.810757",41,4.4111970000000005,50.81102,4.407004,50.810757
526,4456,4358,1,LOUTRIER,"4.407004, 50.810757",KEYM,"4.403172, 50.81003",41,4.407004,50.810757,4.4031720000000005,50.81003
527,4358,2079,1,KEYM,"4.403172, 50.81003",WATERMAEL GARE,"4.399271, 50.809788",41,4.4031720000000005,50.81003,4.399271,50.809788
528,2079,2107,1,WATERMAEL GARE,"4.399271, 50.809788",BIEN-FAIRE,"4.400576, 50.806201",41,4.399271,50.809788,4.400576,50.806201
529,2107,2016,1,BIEN-FAIRE,"4.400576, 50.806201",DRIES,"4.3996, 50.803869",41,4.400576,50.806201,4.3996,50.803869
530,2016,2018,1,DRIES,"4.3996, 50.803869",FUTAIE,"4.396951, 50.801479",41,4.3996,50.803869,4.3969510000000005,50.801479
531,2018,5451,1,FUTAIE,"4.396951, 50.801479",BOONDAEL GARE,"4.393009, 50.801438",41,4.3969510000000005,50.801479,4.393008999999999,50.801438
532,5451,5459,1,BOONDAEL GARE,"4.393009, 50.801438",BRESIL,"4.390383, 50.80286",41,4.393008999999999,50.801438,4.390383,50.802859999999995
533,5459,5458,1,BRESIL,"4.390383, 50.80286",GENDARMES,"4.379178, 50.799463",41,4.390383,50.802859999999995,4.379178,50.799463
534,5458,6439,1,GENDARMES,"4.379178, 50.799463",MONTANA,"4.376795, 50.799589",41,4.379178,50.799463,4.3767949999999995,50.799589000000005
535,6439,2762,1,MONTANA,"4.376795, 50.799589",VERT CHASSEUR,"4.37359, 50.801453",41,4.3767949999999995,50.799589000000005,4.37359,50.801453
536,2762,2763,1,VERT CHASSEUR,"4.37359, 50.801453",HOP.STE-ELISABETH,"4.368986, 50.804883",41,4.37359,50.801453,4.3689860000000005,50.804883000000004
537,2763,1920,1,HOP.STE-ELISABETH,"4.368986, 50.804883",FLORIDE,"4.361786, 50.803796",41,4.3689860000000005,50.804883000000004,4.361786,50.803796000000006
538,1970,2714,2,FLORIDE,"4.361942, 50.803733",HOP.STE-ELISABETH,"4.368837, 50.804785",41,4.361942,50.803733,4.368837,50.804784999999995
539,2714,2715,2,HOP.STE-ELISABETH,"4.368837, 50.804785",VERT CHASSEUR,"4.372922, 50.802349",41,4.368837,50.804784999999995,4.372922,50.802349
540,2715,6440,2,VERT CHASSEUR,"4.372922, 50.802349",MONTANA,"4.376343, 50.799585",41,4.372922,50.802349,4.376343,50.799585
541,6440,2721,2,MONTANA,"4.376343, 50.799585",GENDARMES,"4.379302, 50.79943",41,4.376343,50.799585,4.379302,50.79943
542,2721,5415,2,GENDARMES,"4.379302, 50.79943",BRESIL,"4.390584, 50.802634",41,4.379302,50.79943,4.390584,50.802634000000005
543,5415,5416,2,BRESIL,"4.390584, 50.802634",BOONDAEL GARE,"4.393449, 50.801169",41,4.390584,50.802634000000005,4.3934489999999995,50.801169
544,5416,2074,2,BOONDAEL GARE,"4.393449, 50.801169",FUTAIE,"4.396923, 50.801644",41,4.3934489999999995,50.801169,4.396923,50.801644
545,2074,2076,2,FUTAIE,"4.396923, 50.801644",DRIES,"4.40026, 50.804133",41,4.396923,50.801644,4.40026,50.804133
546,2076,2115,2,DRIES,"4.40026, 50.804133",BIEN-FAIRE,"4.40063, 50.80625",41,4.40026,50.804133,4.4006300000000005,50.80625
547,2115,2080,2,BIEN-FAIRE,"4.40063, 50.80625",WATERMAEL GARE,"4.399387, 50.809661",41,4.4006300000000005,50.80625,4.399387,50.809661
548,2080,4310,2,WATERMAEL GARE,"4.399387, 50.809661",KEYM,"4.403442, 50.809616",41,4.399387,50.809661,4.403442,50.809616
549,4310,4401,2,KEYM,"4.403442, 50.809616",LOUTRIER,"4.407132, 50.810748",41,4.403442,50.809616,4.407132,50.810748
550,4401,4402,2,LOUTRIER,"4.407132, 50.810748",HANNETONS,"4.411512, 50.810919",41,4.407132,50.810748,4.411512,50.810919
551,4402,4403,2,HANNETONS,"4.411512, 50.810919",ARCHIDUCS,"4.416856, 50.809485",41,4.411512,50.810919,4.416856,50.809484999999995
552,4403,4408,2,ARCHIDUCS,"4.416856, 50.809485",TRITOMAS,"4.418766, 50.81094",41,4.416856,50.809484999999995,4.418766000000001,50.81094
553,4408,4405,2,TRITOMAS,"4.418766, 50.81094",PECHERIES,"4.417236, 50.813198",41,4.418766000000001,50.81094,4.417236,50.813198
554,4405,3549,2,PECHERIES,"4.417236, 50.813198",VIGNETTE,"4.419876, 50.813655",41,4.417236,50.813198,4.419876,50.813655
555,3549,6469,2,VIGNETTE,"4.419876, 50.813655",DEMEY,"4.423124, 50.81262","41, 72",4.419876,50.813655,4.423124,50.81262
556,6469,2046,2,DEMEY,"4.423124, 50.81262",HERRMANN-DEBROUX,"4.429112, 50.812357","41, 72",4.423124,50.81262,4.429112,50.812357
557,2046,1723,2,HERRMANN-DEBROUX,"4.429112, 50.812357",SCHOONEJANS,"4.432757, 50.811714",41,4.429112,50.812357,4.432757,50.811714
558,1723,1724,2,SCHOONEJANS,"4.432757, 50.811714",SACRE-COEUR,"4.436147, 50.809887",41,4.432757,50.811714,4.436147,50.809886999999996
559,1724,1725,2,SACRE-COEUR,"4.436147, 50.809887",TRANSVAAL,"4.435562, 50.808245",41,4.436147,50.809886999999996,4.435562,50.808245
560,2015,2029,1,VIADUC E40,"4.453828, 50.866116",THUMAS,"4.456697, 50.864124",42,4.453828,50.866116,4.456697,50.864124
561,2029,2017,1,THUMAS,"4.456697, 50.864124",SAINT-ANTOINE,"4.457417, 50.862491",42,4.456697,50.864124,4.4574169999999995,50.862491
562,2017,2025,1,SAINT-ANTOINE,"4.457417, 50.862491",ANNECY,"4.4549, 50.86019",42,4.4574169999999995,50.862491,4.4549,50.86019
563,2025,9851,1,ANNECY,"4.4549, 50.86019",LENNEKE MARE,"4.450134, 50.856374",42,4.4549,50.86019,4.450133999999999,50.856374
564,9851,2069,1,LENNEKE MARE,"4.450134, 50.856374",UCL SAINT-LUC,"4.452738, 50.85284",42,4.450133999999999,50.856374,4.452738,50.85284
565,2069,2027,1,UCL SAINT-LUC,"4.452738, 50.85284",DUNETTE,"4.455372, 50.852563",42,4.452738,50.85284,4.4553720000000006,50.852563
566,2027,9853,1,DUNETTE,"4.455372, 50.852563",HOF TER MUSSCHEN,"4.447756, 50.854452",42,4.4553720000000006,50.852563,4.447756,50.854452
567,9853,2028,1,HOF TER MUSSCHEN,"4.447756, 50.854452",THIRY-WOLUWE,"4.44343, 50.853935","42, 79",4.447756,50.854452,4.44343,50.853935
568,2028,1553,1,THIRY-WOLUWE,"4.44343, 50.853935",MARCEL THIRY,"4.438887, 50.854908",42,4.44343,50.853935,4.438887,50.854908
569,1383,1540,2,ROODEBEEK,"4.436032, 50.84803",CHARMILLE,"4.434245, 50.850757",42,4.436032,50.84803,4.434245,50.850757
570,1525,1551,2,PEUPLIERS,"4.437955, 50.852894",MARCEL THIRY,"4.440301, 50.854788",42,4.4379550000000005,50.852894,4.440301,50.854788
571,1551,2022,2,MARCEL THIRY,"4.440301, 50.854788",THIRY-WOLUWE,"4.445186, 50.854805","42, 79",4.440301,50.854788,4.445186,50.854805
572,2022,1043,2,THIRY-WOLUWE,"4.445186, 50.854805",HOF TER MUSSCHEN,"4.447844, 50.854208","42, 79",4.445186,50.854805,4.447844,50.854208
573,1043,2084,2,HOF TER MUSSCHEN,"4.447844, 50.854208",UCL SAINT-LUC,"4.452738, 50.85284",42,4.447844,50.854208,4.452738,50.85284
574,2084,2085,2,UCL SAINT-LUC,"4.452738, 50.85284",DUNETTE,"4.455371, 50.852563",42,4.452738,50.85284,4.4553709999999995,50.852563
575,2085,9876,2,DUNETTE,"4.455371, 50.852563",LENNEKE MARE,"4.450342, 50.856481",42,4.4553709999999995,50.852563,4.450342,50.856481
576,9876,2071,2,LENNEKE MARE,"4.450342, 50.856481",ANNECY,"4.454882, 50.85999",42,4.450342,50.856481,4.454882,50.85999
577,2071,2078,2,ANNECY,"4.454882, 50.85999",SAINT-ANTOINE,"4.457565, 50.863047",42,4.454882,50.85999,4.457565,50.863046999999995
578,2078,2087,2,SAINT-ANTOINE,"4.457565, 50.863047",THUMAS,"4.456784, 50.864773",42,4.457565,50.863046999999995,4.456784,50.864773
579,2087,2015,2,THUMAS,"4.456784, 50.864773",VIADUC E40,"4.453828, 50.866116",42,4.456784,50.864773,4.453828,50.866116
580,2109,2140,1,VIVIER D'OIE,"4.372407, 50.795803",RACING,"4.374056, 50.792721",43,4.372407,50.795803,4.3740559999999995,50.792721
581,2140,2142,1,RACING,"4.374056, 50.792721",FORT-JACO,"4.374857, 50.789598",43,4.3740559999999995,50.792721,4.3748569999999996,50.789598
582,2142,2143,1,FORT-JACO,"4.374857, 50.789598",RONCES,"4.376323, 50.786822",43,4.3748569999999996,50.789598,4.376323,50.786821999999994
583,2143,2144,1,RONCES,"4.376323, 50.786822",VAN BEVER,"4.37835, 50.784311",43,4.376323,50.786821999999994,4.37835,50.784310999999995
584,2144,2145,1,VAN BEVER,"4.37835, 50.784311",PRINCE D'ORANGE,"4.380889, 50.781196",43,4.37835,50.784310999999995,4.380889,50.781196
585,2145,2146,1,PRINCE D'ORANGE,"4.380889, 50.781196",NAPOLEON,"4.373884, 50.778634",43,4.380889,50.781196,4.373883999999999,50.778634000000004
586,2146,2147,1,NAPOLEON,"4.373884, 50.778634",SAINTE-ALLIANCE,"4.36532, 50.779147",43,4.373883999999999,50.778634000000004,4.36532,50.779146999999995
587,2147,2156,1,SAINTE-ALLIANCE,"4.36532, 50.779147",GUI,"4.356859, 50.782373",43,4.36532,50.779146999999995,4.356859,50.782373
588,1954,1955,1,GARE DE LINKEBEEK,"4.338772, 50.774085",BRAVES,"4.335874, 50.773632",43,4.3387720000000005,50.774085,4.335874,50.773632
589,1955,1963,1,BRAVES,"4.335874, 50.773632",VIEUX CHEMIN,"4.334839, 50.776441",43,4.335874,50.773632,4.334839,50.776441
590,1963,1957,1,VIEUX CHEMIN,"4.334839, 50.776441",MOENSBERG GARE,"4.332411, 50.779087",43,4.334839,50.776441,4.3324110000000005,50.779087
591,1957,1958,1,MOENSBERG GARE,"4.332411, 50.779087",GRIOTTES,"4.332439, 50.78091",43,4.3324110000000005,50.779087,4.332439,50.78091
592,1958,1959,1,GRIOTTES,"4.332439, 50.78091",BIGARREAUX,"4.332988, 50.784023",43,4.332439,50.78091,4.332987999999999,50.784023
593,1959,1965,1,BIGARREAUX,"4.332988, 50.784023",BOURDON,"4.330532, 50.78733",43,4.332987999999999,50.784023,4.330532,50.78733
594,1965,1961,1,BOURDON,"4.330532, 50.78733",ENGELAND,"4.334006, 50.78894",43,4.330532,50.78733,4.334006,50.788940000000004
595,1961,1962,1,ENGELAND,"4.334006, 50.78894",UCCLE CALEVOET,"4.332898, 50.791242",43,4.334006,50.788940000000004,4.332898,50.791242
596,1962,2166,1,UCCLE CALEVOET,"4.332898, 50.791242",JEANNE HERREMAN,"4.334203, 50.794092",43,4.332898,50.791242,4.334203,50.794092
597,2166,1964,1,JEANNE HERREMAN,"4.334203, 50.794092",RITTWEGER,"4.336207, 50.797648",43,4.334203,50.794092,4.336207,50.797647999999995
598,1964,1985,1,RITTWEGER,"4.336207, 50.797648",GLOBE,"4.3373, 50.80056",43,4.336207,50.797647999999995,4.3373,50.80056
599,1985,5058,1,GLOBE,"4.3373, 50.80056",HEROS,"4.341571, 50.803542","43, 75",4.3373,50.80056,4.341571,50.803542
600,2355,1984,2,HEROS,"4.342194, 50.803139",GLOBE,"4.337416, 50.800674",43,4.342194,50.803139,4.337416,50.800674
601,1984,1926,2,GLOBE,"4.337416, 50.800674",RITTWEGER,"4.336239, 50.798185",43,4.337416,50.800674,4.336239,50.798185
602,1926,2165,2,RITTWEGER,"4.336239, 50.798185",JEANNE HERREMAN,"4.3343, 50.794343",43,4.336239,50.798185,4.3343,50.794343
603,2165,5817,2,JEANNE HERREMAN,"4.3343, 50.794343",UCCLE CALEVOET,"4.332798, 50.791986",43,4.3343,50.794343,4.332798,50.791986
604,5817,1929,2,UCCLE CALEVOET,"4.332798, 50.791986",ENGELAND,"4.333814, 50.789477",43,4.332798,50.791986,4.333814,50.789477000000005
605,1929,1937,2,ENGELAND,"4.333814, 50.789477",BOURDON,"4.330689, 50.78698",43,4.333814,50.789477000000005,4.330689,50.78698
606,1937,1931,2,BOURDON,"4.330689, 50.78698",BIGARREAUX,"4.332705, 50.784248",43,4.330689,50.78698,4.332705000000001,50.784248
607,1931,1932,2,BIGARREAUX,"4.332705, 50.784248",GRIOTTES,"4.332395, 50.781047",43,4.332705000000001,50.784248,4.332395,50.781046999999994
608,1932,1933,2,GRIOTTES,"4.332395, 50.781047",MOENSBERG GARE,"4.332425, 50.778935",43,4.332395,50.781046999999994,4.332425,50.778935
609,1933,1939,2,MOENSBERG GARE,"4.332425, 50.778935",VIEUX CHEMIN,"4.33478, 50.776292",43,4.332425,50.778935,4.33478,50.776292
610,1939,1935,2,VIEUX CHEMIN,"4.33478, 50.776292",BRAVES,"4.336027, 50.773299",43,4.33478,50.776292,4.336027,50.773299
611,1935,1936,2,BRAVES,"4.336027, 50.773299",GARE DE LINKEBEEK,"4.338942, 50.774094",43,4.336027,50.773299,4.338941999999999,50.774094
612,2104,2116,2,GUI,"4.35701, 50.782621",SAINTE-ALLIANCE,"4.364342, 50.779228",43,4.35701,50.782621,4.364342,50.779228
613,2116,2117,2,SAINTE-ALLIANCE,"4.364342, 50.779228",NAPOLEON,"4.376415, 50.779259",43,4.364342,50.779228,4.376415,50.779259
614,2117,2118,2,NAPOLEON,"4.376415, 50.779259",PRINCE D'ORANGE,"4.380476, 50.780738",43,4.376415,50.779259,4.380476,50.780738
615,2118,2119,2,PRINCE D'ORANGE,"4.380476, 50.780738",VAN BEVER,"4.379204, 50.783459",43,4.380476,50.780738,4.379204,50.783459
616,2119,2120,2,VAN BEVER,"4.379204, 50.783459",RONCES,"4.375822, 50.787661",43,4.379204,50.783459,4.375822,50.787661
617,2120,2136,2,RONCES,"4.375822, 50.787661",FORT-JACO,"4.37502, 50.789323",43,4.375822,50.787661,4.37502,50.789322999999996
618,2136,2137,2,FORT-JACO,"4.37502, 50.789323",RACING,"4.374226, 50.792451",43,4.37502,50.789322999999996,4.374226,50.792451
619,2137,2138,2,RACING,"4.374226, 50.792451",VIVIER D'OIE,"4.373693, 50.794875",43,4.374226,50.792451,4.373693,50.794875
620,9292,2909,1,SAINT-VINCENT,"4.401719, 50.880967",SAINT-VINCENT,"4.403821, 50.880816",45,4.401719,50.880967,4.403821,50.880815999999996
621,2909,2903,1,SAINT-VINCENT,"4.403821, 50.880816",FONSON,"4.403693, 50.878826","45, 64",4.403821,50.880815999999996,4.403693,50.878826000000004
622,2903,2910,1,FONSON,"4.403693, 50.878826",PAIX,"4.401905, 50.877097","45, 64",4.403693,50.878826000000004,4.401905,50.877097
623,2910,2924,1,PAIX,"4.401905, 50.877097",OUD-KAPELLEKE,"4.403007, 50.874152","45, 64",4.401905,50.877097,4.403007,50.874152
624,3458,3459,1,LOISIRS,"4.40627, 50.86793",DUNANT,"4.410272, 50.863443",45,4.40627,50.86793,4.410272,50.863443
625,3459,3460,1,DUNANT,"4.410272, 50.863443",GUILLAUME,"4.412554, 50.861101","45, 66",4.410272,50.863443,4.412554,50.861101
626,3460,3461,1,GUILLAUME,"4.412554, 50.861101",PADUWA,"4.415634, 50.859327",45,4.412554,50.861101,4.415634,50.859327
627,3461,3462,1,PADUWA,"4.415634, 50.859327",CICERON,"4.421579, 50.860355",45,4.415634,50.859327,4.421579,50.860355
628,3462,3463,1,CICERON,"4.421579, 50.860355",GULLEDELLE,"4.42854, 50.855565",45,4.421579,50.860355,4.42854,50.855565000000006
629,3463,1321,1,GULLEDELLE,"4.42854, 50.855565",ARIANE,"4.432322, 50.85661","45, 79",4.42854,50.855565000000006,4.432322,50.856609999999996
630,1321,1553,1,ARIANE,"4.432322, 50.85661",MARCEL THIRY,"4.438887, 50.854908",45,4.432322,50.856609999999996,4.438887,50.854908
631,1384,1540,2,ROODEBEEK,"4.436066, 50.848138",CHARMILLE,"4.434245, 50.850757",45,4.436066,50.848138,4.434245,50.850757
632,1525,1531,2,PEUPLIERS,"4.437955, 50.852894",MARCEL THIRY,"4.438959, 50.85561",45,4.4379550000000005,50.852894,4.438959,50.85561
633,1531,1320,2,MARCEL THIRY,"4.438959, 50.85561",ARIANE,"4.431044, 50.85644","45, 79",4.438959,50.85561,4.431044,50.85644
634,1320,1533,2,ARIANE,"4.431044, 50.85644",GULLEDELLE,"4.428179, 50.855492","45, 79",4.431044,50.85644,4.428179,50.855492
635,1533,1534,2,GULLEDELLE,"4.428179, 50.855492",CICERON,"4.420453, 50.860617",45,4.428179,50.855492,4.420453,50.860617
636,1534,1538,2,CICERON,"4.420453, 50.860617",DE LOMBAERDE,"4.416887, 50.859742",45,4.420453,50.860617,4.416887,50.859742
637,1538,1535,2,DE LOMBAERDE,"4.416887, 50.859742",PADUWA,"4.414209, 50.859649",45,4.416887,50.859742,4.414209,50.859649
638,1535,3402,2,PADUWA,"4.414209, 50.859649",GUILLAUME,"4.412642, 50.861276","45, 66",4.414209,50.859649,4.412642,50.861276000000004
639,3402,3403,2,GUILLAUME,"4.412642, 50.861276",DUNANT,"4.408995, 50.865035","45, 66",4.412642,50.861276000000004,4.408995,50.865035
640,3403,3404,2,DUNANT,"4.408995, 50.865035",LOISIRS,"4.406426, 50.86793",45,4.408995,50.865035,4.406426000000001,50.86793
641,3420,2982,2,OUD-KAPELLEKE,"4.403888, 50.874341",PAIX,"4.402225, 50.876696",45,4.403887999999999,50.874340999999994,4.402225,50.876696
642,2982,2900,2,PAIX,"4.402225, 50.876696",FONSON,"4.403878, 50.879033","45, 64",4.402225,50.876696,4.403878,50.879033
643,2900,2992,2,FONSON,"4.403878, 50.879033",SAINT-VINCENT,"4.403855, 50.88088","45, 64",4.403878,50.879033,4.403855,50.88088
644,2992,9292,2,SAINT-VINCENT,"4.403855, 50.88088",SAINT-VINCENT,"4.401719, 50.880967",45,4.403855,50.88088,4.401719,50.880967
645,3312,3413,1,PANNENHUIS,"4.342231, 50.872596",POUCHKINE,"4.34512, 50.871257",46,4.342231,50.872596,4.34512,50.871257
646,3413,3082,1,POUCHKINE,"4.34512, 50.871257",ANDREE DE JONGH,"4.348892, 50.87101","46, 86, 88",4.34512,50.871257,4.348892,50.87101
647,3082,2370,1,ANDREE DE JONGH,"4.348892, 50.87101",ENTREPOT,"4.353112, 50.86861","46, 86",4.348892,50.87101,4.353112,50.86861
648,2370,1348,1,ENTREPOT,"4.353112, 50.86861",TOUR ET TAXIS,"4.350303, 50.864947","46, 86",4.353112,50.86861,4.350303,50.864946999999994
649,1348,1282,1,TOUR ET TAXIS,"4.350303, 50.864947",SUZAN DANIEL,"4.348724, 50.863018",46,4.350303,50.864946999999994,4.348724,50.863018
650,1282,1024,1,SUZAN DANIEL,"4.348724, 50.863018",WTC,"4.355358, 50.861176",46,4.348724,50.863018,4.355358,50.861176
651,1024,2209,1,WTC,"4.355358, 50.861176",NICOLAY,"4.354478, 50.858919",46,4.355358,50.861176,4.354478,50.858919
652,2209,2835,1,NICOLAY,"4.354478, 50.858919",YSER,"4.353201, 50.857103",46,4.354478,50.858919,4.353201,50.857103
653,2835,3469,1,YSER,"4.353201, 50.857103",DE BROUCKERE,"4.350802, 50.851799",46,4.353201,50.857103,4.350802,50.851799
654,3469,1895,1,DE BROUCKERE,"4.350802, 50.851799",BOURSE,"4.348391, 50.849239",46,4.350802,50.851799,4.348391,50.849239000000004
655,1895,2213,1,BOURSE,"4.348391, 50.849239",BUANDERIE,"4.342782, 50.846143",46,4.348391,50.849239000000004,4.342782,50.846143
656,2213,2403,1,BUANDERIE,"4.342782, 50.846143",PTE D'ANDERLECHT,"4.338679, 50.844911",46,4.342782,50.846143,4.338679,50.844910999999996
657,2403,2215,1,PTE D'ANDERLECHT,"4.338679, 50.844911",LIVERPOOL,"4.33398, 50.843561",46,4.338679,50.844910999999996,4.33398,50.843561
658,2215,2216,1,LIVERPOOL,"4.33398, 50.843561",CLEMENCEAU,"4.329864, 50.841816",46,4.33398,50.843561,4.329864,50.841815999999994
659,2216,2217,1,CLEMENCEAU,"4.329864, 50.841816",ALBERT I,"4.322911, 50.839134",46,4.329864,50.841815999999994,4.322911,50.839134
660,2217,2218,1,ALBERT I,"4.322911, 50.839134",CUREGHEM,"4.31806, 50.836803",46,4.322911,50.839134,4.31806,50.836803
661,2218,3378,1,CUREGHEM,"4.31806, 50.836803",DOUVRES,"4.31448, 50.836138",46,4.31806,50.836803,4.3144800000000005,50.836138
662,3378,3377,1,DOUVRES,"4.31448, 50.836138",RESISTANCE,"4.311911, 50.835725",46,4.3144800000000005,50.836138,4.311911,50.835725
663,3377,3369,1,RESISTANCE,"4.311911, 50.835725",SAINT-GUIDON,"4.306103, 50.83476","46, 49",4.311911,50.835725,4.306103,50.834759999999996
664,3369,2323,1,SAINT-GUIDON,"4.306103, 50.83476",MEIR,"4.30281, 50.833035","46, 49",4.306103,50.834759999999996,4.30281,50.833034999999995
665,2323,2373,1,MEIR,"4.30281, 50.833035",DE LINDE,"4.298979, 50.835428",46,4.30281,50.833034999999995,4.298979,50.835428
666,2373,2375,1,DE LINDE,"4.298979, 50.835428",HOPITAL BRACOPS,"4.295433, 50.833718",46,4.298979,50.835428,4.295433,50.833718
667,2375,3713,1,HOPITAL BRACOPS,"4.295433, 50.833718",SCHERDEMAEL,"4.289291, 50.830981",46,4.295433,50.833718,4.289291,50.830981
668,3713,3712,1,SCHERDEMAEL,"4.289291, 50.830981",VANHELLEMONT,"4.285828, 50.829471",46,4.289291,50.830981,4.2858279999999995,50.829471000000005
669,3712,3718,1,VANHELLEMONT,"4.285828, 50.829471",NEERPEDE,"4.281717, 50.829351",46,4.2858279999999995,50.829471000000005,4.2817169999999996,50.829351
670,3718,3717,1,NEERPEDE,"4.281717, 50.829351",SIBELIUS,"4.282615, 50.833404",46,4.2817169999999996,50.829351,4.282615,50.833403999999994
671,3717,1033,1,SIBELIUS,"4.282615, 50.833404",WESTLAND SHOPPING,"4.287194, 50.837629",46,4.282615,50.833403999999994,4.287194,50.837629
672,1204,1489,2,FRUITS,"4.290288, 50.837374",RENE HENRY,"4.295116, 50.836343","46, 75",4.290287999999999,50.837374,4.295116,50.836343
673,3752,3751,2,SIBELIUS,"4.282502, 50.833205",NEERPEDE,"4.281613, 50.829211",46,4.282502,50.833205,4.281613,50.829211
674,3751,3756,2,NEERPEDE,"4.281613, 50.829211",VANHELLEMONT,"4.286071, 50.829451",46,4.281613,50.829211,4.286071,50.829451
675,3756,3755,2,VANHELLEMONT,"4.286071, 50.829451",SCHERDEMAEL,"4.290057, 50.831225",46,4.286071,50.829451,4.290057,50.831225
676,3755,2319,2,SCHERDEMAEL,"4.290057, 50.831225",HOPITAL BRACOPS,"4.295192, 50.833458",46,4.290057,50.831225,4.295192,50.833458
677,2319,2518,2,HOPITAL BRACOPS,"4.295192, 50.833458",DE LINDE,"4.299476, 50.835331",46,4.295192,50.833458,4.299476,50.835331
678,2518,3368,2,DE LINDE,"4.299476, 50.835331",SAINT-GUIDON,"4.305881, 50.834693",46,4.299476,50.835331,4.305880999999999,50.834693
679,3368,3376,2,SAINT-GUIDON,"4.305881, 50.834693",RESISTANCE,"4.311713, 50.835636",46,4.305880999999999,50.834693,4.311713,50.835636
680,3376,3379,2,RESISTANCE,"4.311713, 50.835636",DOUVRES,"4.314279, 50.836048",46,4.311713,50.835636,4.314279,50.836048
681,3379,2259,2,DOUVRES,"4.314279, 50.836048",CUREGHEM,"4.318582, 50.837022",46,4.314279,50.836048,4.318582,50.837022
682,2259,2260,2,CUREGHEM,"4.318582, 50.837022",ALBERT I,"4.323316, 50.839213",46,4.318582,50.837022,4.323316,50.839213
683,2260,2261,2,ALBERT I,"4.323316, 50.839213",CLEMENCEAU,"4.330106, 50.841816",46,4.323316,50.839213,4.330106,50.841815999999994
684,2261,2262,2,CLEMENCEAU,"4.330106, 50.841816",LIVERPOOL,"4.335201, 50.843741",46,4.330106,50.841815999999994,4.3352010000000005,50.843740999999994
685,2262,2405,2,LIVERPOOL,"4.335201, 50.843741",PTE D'ANDERLECHT,"4.338892, 50.844731",46,4.3352010000000005,50.843740999999994,4.3388919999999995,50.844731
686,2405,2264,2,PTE D'ANDERLECHT,"4.338892, 50.844731",BUANDERIE,"4.343922, 50.846737",46,4.3388919999999995,50.844731,4.343922,50.846737
687,2264,1894,2,BUANDERIE,"4.343922, 50.846737",BOURSE,"4.34871, 50.849296",46,4.343922,50.846737,4.34871,50.849296
688,1894,3465,2,BOURSE,"4.34871, 50.849296",DE BROUCKERE,"4.351157, 50.85242",46,4.34871,50.849296,4.351157,50.85242
689,3465,3075,2,DE BROUCKERE,"4.351157, 50.85242",YSER,"4.353526, 50.857349",46,4.351157,50.85242,4.3535260000000005,50.857349
690,3075,2269,2,YSER,"4.353526, 50.857349",NICOLAY,"4.354777, 50.859189",46,4.3535260000000005,50.857349,4.3547769999999995,50.859189
691,2269,2587,2,NICOLAY,"4.354777, 50.859189",WTC,"4.355779, 50.860782",46,4.3547769999999995,50.859189,4.355779,50.860782
692,2587,1281,2,WTC,"4.355779, 50.860782",SUZAN DANIEL,"4.349156, 50.863306",46,4.355779,50.860782,4.349156,50.863306
693,1281,1356,2,SUZAN DANIEL,"4.349156, 50.863306",TOUR ET TAXIS,"4.350999, 50.865586",46,4.349156,50.863306,4.350999,50.865586
694,1356,2305,2,TOUR ET TAXIS,"4.350999, 50.865586",ENTREPOT,"4.353197, 50.868341","46, 86",4.350999,50.865586,4.353197,50.868341
695,2305,3083,2,ENTREPOT,"4.353197, 50.868341",ANDREE DE JONGH,"4.349332, 50.870911","46, 86",4.353197,50.868341,4.3493319999999995,50.870911
696,3083,4258,2,ANDREE DE JONGH,"4.349332, 50.870911",POUCHKINE,"4.344064, 50.871076","46, 86, 88",4.3493319999999995,50.870911,4.344064,50.871076
697,4258,3293,2,POUCHKINE,"4.344064, 50.871076",PANNENHUIS,"4.341965, 50.872812",46,4.344064,50.871076,4.341965,50.872811999999996
698,9784,9786,1,VILVOORDE STATION,"4.43192, 50.924502",HELDENPLEIN,"4.426765, 50.926184",47,4.43192,50.924502000000004,4.4267650000000005,50.926184
699,9786,9787,1,HELDENPLEIN,"4.426765, 50.926184",KERK VILVOORDE,"4.422916, 50.926445",47,4.4267650000000005,50.926184,4.422916000000001,50.926445
700,9787,2841,1,KERK VILVOORDE,"4.422916, 50.926445",VLIERKENS,"4.413867, 50.922931",47,4.422916000000001,50.926445,4.413867,50.922931
701,2841,9605,1,VLIERKENS,"4.413867, 50.922931",MINNEMOLEN,"4.406453, 50.921004",47,4.413867,50.922931,4.406453,50.921003999999996
702,9605,9606,1,MINNEMOLEN,"4.406453, 50.921004",ENNEPETAL,"4.406551, 50.919556",47,4.406453,50.921003999999996,4.406551,50.919556
703,9606,9632,1,ENNEPETAL,"4.406551, 50.919556",TWEE LEEUWENWEG,"4.402106, 50.916875",47,4.406551,50.919556,4.402106,50.916875
704,9632,9634,1,TWEE LEEUWENWEG,"4.402106, 50.916875",VTM,"4.397798, 50.91417",47,4.402106,50.916875,4.397798000000001,50.91417
705,9634,1037,1,VTM,"4.397798, 50.91417",HOP. MILITAIRE,"4.389004, 50.907736",47,4.397798000000001,50.91417,4.389004,50.907736
706,1037,1040,1,HOP. MILITAIRE,"4.389004, 50.907736",MERCATOR,"4.39609, 50.908333",47,4.389004,50.907736,4.39609,50.908333
707,1040,1044,1,MERCATOR,"4.39609, 50.908333",SIMONE VEIL,"4.403494, 50.905522","47, 56",4.39609,50.908333,4.403494,50.905522
708,1044,1053,1,SIMONE VEIL,"4.403494, 50.905522",MARLY,"4.402396, 50.898577",47,4.403494,50.905522,4.4023959999999995,50.898577
709,1053,1089,1,MARLY,"4.402396, 50.898577",PAVILLONS MEUDON,"4.397845, 50.893925",47,4.4023959999999995,50.898577,4.397844999999999,50.893925
710,1089,3005,1,PAVILLONS MEUDON,"4.397845, 50.893925",TROIS PERTUIS,"4.395871, 50.892136",47,4.397844999999999,50.893925,4.395871,50.892136
711,3005,3014,1,TROIS PERTUIS,"4.395871, 50.892136",RIVE GAUCHE,"4.390484, 50.890435",47,4.395871,50.892136,4.390484,50.890435
712,3014,3007,1,RIVE GAUCHE,"4.390484, 50.890435",BIEBUYCK,"4.384372, 50.88779",47,4.390484,50.890435,4.384372,50.88779
713,3007,3008,1,BIEBUYCK,"4.384372, 50.88779",AVANT-PORT,"4.379059, 50.885567",47,4.384372,50.88779,4.379059,50.885567
714,3008,1061,1,AVANT-PORT,"4.379059, 50.885567",HEEMBEEK,"4.377897, 50.887234",47,4.379059,50.885567,4.377897,50.887234
715,1062,1068,2,HEEMBEEK,"4.378208, 50.88749",PRES COMMUNS,"4.381395, 50.889929","47, 56",4.378208,50.88749,4.3813949999999995,50.889928999999995
716,1068,3059,2,PRES COMMUNS,"4.381395, 50.889929",BIEBUYCK,"4.384613, 50.887865",47,4.3813949999999995,50.889928999999995,4.384613,50.887865000000005
717,3059,2327,2,BIEBUYCK,"4.384613, 50.887865",RIVE GAUCHE,"4.391322, 50.890381",47,4.384613,50.887865000000005,4.391322,50.890381
718,2327,3061,2,RIVE GAUCHE,"4.391322, 50.890381",TROIS PERTUIS,"4.395829, 50.892025",47,4.391322,50.890381,4.395829,50.892025
719,3061,1090,2,TROIS PERTUIS,"4.395829, 50.892025",PAVILLONS MEUDON,"4.397901, 50.893896",47,4.395829,50.892025,4.397901,50.893896000000005
720,1090,3063,2,PAVILLONS MEUDON,"4.397901, 50.893896",MARLY,"4.40149, 50.89846",47,4.397901,50.893896000000005,4.40149,50.89846
721,3063,1054,2,MARLY,"4.40149, 50.89846",NELSON MANDELA,"4.399029, 50.899278",47,4.40149,50.89846,4.3990290000000005,50.899278
722,1054,1050,2,NELSON MANDELA,"4.399029, 50.899278",SIMONE VEIL,"4.402031, 50.905996",47,4.3990290000000005,50.899278,4.402031,50.905996
723,1050,1041,2,SIMONE VEIL,"4.402031, 50.905996",MERCATOR,"4.395102, 50.908496",47,4.402031,50.905996,4.395102,50.908496
724,1041,1038,2,MERCATOR,"4.395102, 50.908496",HOP. MILITAIRE,"4.389203, 50.907873",47,4.395102,50.908496,4.389203,50.907872999999995
725,1038,9608,2,HOP. MILITAIRE,"4.389203, 50.907873",VTM,"4.39907, 50.914183",47,4.389203,50.907872999999995,4.39907,50.914183
726,9608,9607,2,VTM,"4.39907, 50.914183",TWEE LEEUWENWEG,"4.402265, 50.916874",47,4.39907,50.914183,4.402265,50.916874
727,9607,9631,2,TWEE LEEUWENWEG,"4.402265, 50.916874",ENNEPETAL,"4.408232, 50.919385",47,4.402265,50.916874,4.408232,50.919385
728,9631,9626,2,ENNEPETAL,"4.408232, 50.919385",MINNEMOLEN,"4.4093, 50.921057",47,4.408232,50.919385,4.4093,50.921057
729,9626,9627,2,MINNEMOLEN,"4.4093, 50.921057",VLIERKENS,"4.413781, 50.922736",47,4.4093,50.921057,4.413781,50.922736
730,9627,9783,2,VLIERKENS,"4.413781, 50.922736",KERK VILVOORDE,"4.423329, 50.926373",47,4.413781,50.922736,4.423329,50.926373
731,9783,1143,2,KERK VILVOORDE,"4.423329, 50.926373",HANSSENSPARK,"4.426533, 50.923607",47,4.423329,50.926373,4.426533,50.923607000000004
732,1143,1121,2,HANSSENSPARK,"4.426533, 50.923607",BLOKKEN,"4.428635, 50.92159",47,4.426533,50.923607000000004,4.428635,50.92159
733,1121,9784,2,BLOKKEN,"4.428635, 50.92159",VILVOORDE STATION,"4.43192, 50.924502",47,4.428635,50.92159,4.43192,50.924502000000004
734,1288,1184,1,SIMONIS,"4.330614, 50.863301",LIBERTE,"4.325697, 50.862752",49,4.330614,50.863301,4.325697,50.862752
735,1184,1182,1,LIBERTE,"4.325697, 50.862752",SIPPELBERG,"4.321936, 50.861968",49,4.325697,50.862752,4.321936,50.861968
736,1182,3486,1,SIPPELBERG,"4.321936, 50.861968",BASTOGNE,"4.314906, 50.861416",49,4.321936,50.861968,4.314906,50.861416
737,3486,2511,1,BASTOGNE,"4.314906, 50.861416",CIM. DE MOLENBEEK,"4.311245, 50.858628","49, 53",4.314906,50.861416,4.3112449999999995,50.858628
738,2511,2512,1,CIM. DE MOLENBEEK,"4.311245, 50.858628",LEROY,"4.308918, 50.856955","49, 53",4.3112449999999995,50.858628,4.308918,50.856955
739,2512,2513,1,LEROY,"4.308918, 50.856955",CANDRIES,"4.306058, 50.854999","49, 53",4.308918,50.856955,4.306058,50.854999
740,2513,2514,1,CANDRIES,"4.306058, 50.854999",MACHTENS,"4.30046, 50.851754","49, 53",4.306058,50.854999,4.30046,50.851754
741,2514,2522,1,MACHTENS,"4.30046, 50.851754",PRINCE DE LIEGE,"4.298367, 50.846278","49, 53",4.30046,50.851754,4.298367,50.846278000000005
742,2522,3638,1,PRINCE DE LIEGE,"4.298367, 50.846278",MEHDI BOUDA,"4.295787, 50.843418","49, 53",4.298367,50.846278000000005,4.295787000000001,50.843418
743,3638,1207,1,MEHDI BOUDA,"4.295787, 50.843418",PAULSEN,"4.300495, 50.843463",49,4.295787000000001,50.843418,4.300495,50.843463
744,1207,2532,1,PAULSEN,"4.300495, 50.843463",JAKOB SMITS,"4.303494, 50.841453",49,4.300495,50.843463,4.303494000000001,50.841453
745,2532,2533,1,JAKOB SMITS,"4.303494, 50.841453",BEAUTE,"4.30772, 50.839302",49,4.303494000000001,50.841453,4.30772,50.839302
746,2533,2534,1,BEAUTE,"4.30772, 50.839302",BROEREN,"4.312751, 50.838325",49,4.30772,50.839302,4.3127510000000004,50.838325
747,2534,3377,1,BROEREN,"4.312751, 50.838325",RESISTANCE,"4.311911, 50.835725",49,4.3127510000000004,50.838325,4.311911,50.835725
748,2323,6484,1,MEIR,"4.30281, 50.833035",VEEWEYDE,"4.300692, 50.829745",49,4.30281,50.833034999999995,4.300692,50.829745
749,6484,2225,1,VEEWEYDE,"4.300692, 50.829745",ARISTIDE BRIAND,"4.303346, 50.828805",49,4.300692,50.829745,4.303346,50.828804999999996
750,2225,2226,1,ARISTIDE BRIAND,"4.303346, 50.828805",VAN KALKEN,"4.304877, 50.826586","49, 74",4.303346,50.828804999999996,4.304876999999999,50.826586
751,2226,3682,1,VAN KALKEN,"4.304877, 50.826586",DIGUE DU CANAL,"4.310464, 50.823802","49, 74",4.304876999999999,50.826586,4.310464,50.823802
752,3682,2523,1,DIGUE DU CANAL,"4.310464, 50.823802",ILE SAINTE-HELENE,"4.316581, 50.823274","49, 74",4.310464,50.823802,4.316580999999999,50.823274
753,2523,2524,1,ILE SAINTE-HELENE,"4.316581, 50.823274",CHARROI,"4.322634, 50.822309",49,4.316580999999999,50.823274,4.322634,50.822309000000004
754,2524,5159,1,CHARROI,"4.322634, 50.822309",WIELS,"4.32633, 50.824878","49, 50",4.322634,50.822309000000004,4.3263300000000005,50.824878000000005
755,5159,5757,1,WIELS,"4.32633, 50.824878",ORBAN,"4.327492, 50.82727","49, 50",4.3263300000000005,50.824878000000005,4.3274919999999995,50.82727
756,5757,2672,1,ORBAN,"4.327492, 50.82727",IMPRIMERIE,"4.330725, 50.830004","49, 50",4.3274919999999995,50.82727,4.330725,50.830003999999995
757,2672,2670,1,IMPRIMERIE,"4.330725, 50.830004",AVENUE DU ROI,"4.332853, 50.831686","49, 50",4.330725,50.830003999999995,4.332853,50.831686
758,2670,2671,1,AVENUE DU ROI,"4.332853, 50.831686",SUEDE,"4.336102, 50.834213","49, 50",4.332853,50.831686,4.3361019999999995,50.834213
759,2671,2531,1,SUEDE,"4.336102, 50.834213",GARE DU MIDI,"4.337828, 50.836331",49,4.3361019999999995,50.834213,4.337828,50.836331
760,2531,2539,2,GARE DU MIDI,"4.337828, 50.836331",SUEDE,"4.335818, 50.834096",49,4.337828,50.836331,4.335818,50.834096
761,2539,2544,2,SUEDE,"4.335818, 50.834096",AVENUE DU ROI,"4.332229, 50.831389","49, 50",4.335818,50.834096,4.332229,50.831389
762,2544,2548,2,AVENUE DU ROI,"4.332229, 50.831389",IMPRIMERIE,"4.329152, 50.828963","49, 50",4.332229,50.831389,4.329152,50.828963
763,2548,2553,2,IMPRIMERIE,"4.329152, 50.828963",ORBAN,"4.327205, 50.827133","49, 50",4.329152,50.828963,4.327205,50.827133
764,2553,2546,2,ORBAN,"4.327205, 50.827133",WIELS,"4.325394, 50.824159","49, 50",4.327205,50.827133,4.325394,50.824159
765,2546,2551,2,WIELS,"4.325394, 50.824159",CHARROI,"4.321734, 50.822171",49,4.325394,50.824159,4.321733999999999,50.822171000000004
766,2551,2556,2,CHARROI,"4.321734, 50.822171",ILE SAINTE-HELENE,"4.316113, 50.823497","49, 74",4.321733999999999,50.822171000000004,4.316113,50.823496999999996
767,2556,3681,2,ILE SAINTE-HELENE,"4.316113, 50.823497",DIGUE DU CANAL,"4.310747, 50.823973","49, 74",4.316113,50.823496999999996,4.310747,50.823972999999995
768,3681,2550,2,DIGUE DU CANAL,"4.310747, 50.823973",VAN KALKEN,"4.305009, 50.827044","49, 74",4.310747,50.823972999999995,4.305009,50.827044
769,2550,2252,2,VAN KALKEN,"4.305009, 50.827044",ARISTIDE BRIAND,"4.302693, 50.828949","49, 74",4.305009,50.827044,4.302693,50.828949
770,2252,6483,2,ARISTIDE BRIAND,"4.302693, 50.828949",VEEWEYDE,"4.301111, 50.830338",49,4.302693,50.828949,4.301111,50.830338
771,6483,2254,2,VEEWEYDE,"4.301111, 50.830338",MEIR,"4.302034, 50.832176",49,4.301111,50.830338,4.302034,50.832176000000004
